{"name":"kikar|","type":"FeatureCollection","property_names":["mahoz","semel","city","nrashut","TzName","streets","AuthCode","Authority","domain","new"],
"features":[
{"type":"Feature",
"id":1,"properties":{"mahoz":6,"semel":1278,"city":"באר מילכה","nrashut":1,"TzName":null,"streets":null,"AuthCode":null,"Authority":null,"domain":1,"new":null},
"geometry":{"type":"Point","coordinates":[34.406547,30.932513]}}
,
{"type":"Feature",
"id":2,"properties":{"mahoz":6,"semel":1291,"city":"כמהין","nrashut":1,"TzName":null,"streets":null,"AuthCode":null,"Authority":null,"domain":1,"new":null},
"geometry":{"type":"Point","coordinates":[34.430619,30.909664]}}
,
{"type":"Feature",
"id":3,"properties":{"mahoz":6,"semel":1363,"city":"בני נצרים","nrashut":1,"TzName":null,"streets":null,"AuthCode":null,"Authority":null,"domain":1,"new":null},
"geometry":{"type":"Point","coordinates":[34.317836,31.141066]}}
,
{"type":"Feature",
"id":4,"properties":{"mahoz":6,"semel":1366,"city":"נווה","nrashut":1,"TzName":null,"streets":null,"AuthCode":null,"Authority":null,"domain":1,"new":null},
"geometry":{"type":"Point","coordinates":[34.328525,31.161061]}}
,
{"type":"Feature",
"id":5,"properties":{"mahoz":6,"semel":1366,"city":"נווה","nrashut":2,"TzName":null,"streets":null,"AuthCode":null,"Authority":null,"domain":1,"new":null},
"geometry":{"type":"Point","coordinates":[34.328333,31.162118]}}
,
{"type":"Feature",
"id":6,"properties":{"mahoz":6,"semel":1366,"city":"נווה","nrashut":3,"TzName":null,"streets":null,"AuthCode":null,"Authority":null,"domain":1,"new":null},
"geometry":{"type":"Point","coordinates":[34.332593,31.162156]}}
,
{"type":"Feature",
"id":7,"properties":{"mahoz":6,"semel":1366,"city":"נווה","nrashut":4,"TzName":null,"streets":null,"AuthCode":null,"Authority":null,"domain":1,"new":null},
"geometry":{"type":"Point","coordinates":[34.334296,31.162387]}}
,
{"type":"Feature",
"id":8,"properties":{"mahoz":6,"semel":1232,"city":"יבול","nrashut":1,"TzName":null,"streets":"2200","AuthCode":null,"Authority":null,"domain":1,"new":null},
"geometry":{"type":"Point","coordinates":[34.316581,31.189391]}}
,
{"type":"Feature",
"id":9,"properties":{"mahoz":6,"semel":1227,"city":"יתד","nrashut":1,"TzName":null,"streets":null,"AuthCode":null,"Authority":null,"domain":1,"new":null},
"geometry":{"type":"Point","coordinates":[34.32325,31.200652]}}
,
{"type":"Feature",
"id":10,"properties":{"mahoz":6,"semel":1227,"city":"יתד","nrashut":2,"TzName":null,"streets":null,"AuthCode":null,"Authority":null,"domain":1,"new":null},
"geometry":{"type":"Point","coordinates":[34.321579,31.205693]}}
,
{"type":"Feature",
"id":11,"properties":{"mahoz":6,"semel":1227,"city":"יתד","nrashut":3,"TzName":null,"streets":null,"AuthCode":null,"Authority":null,"domain":1,"new":null},
"geometry":{"type":"Point","coordinates":[34.330427,31.207071]}}
,
{"type":"Feature",
"id":12,"properties":{"mahoz":6,"semel":null,"city":null,"nrashut":null,"TzName":"כניסה ליבול","streets":"2200 / 2211","AuthCode":10101,"Authority":"נתיבי ישראל","domain":2,"new":null},
"geometry":{"type":"Point","coordinates":[34.333785,31.202543]}}
,
{"type":"Feature",
"id":13,"properties":{"mahoz":6,"semel":1241,"city":"דקל","nrashut":1,"TzName":null,"streets":null,"AuthCode":null,"Authority":null,"domain":1,"new":null},
"geometry":{"type":"Point","coordinates":[34.338053,31.19884]}}
,
{"type":"Feature",
"id":14,"properties":{"mahoz":6,"semel":1241,"city":"דקל","nrashut":2,"TzName":null,"streets":null,"AuthCode":null,"Authority":null,"domain":1,"new":null},
"geometry":{"type":"Point","coordinates":[34.349731,31.197108]}}
,
{"type":"Feature",
"id":15,"properties":{"mahoz":6,"semel":1237,"city":"תלמי יוסף","nrashut":1,"TzName":null,"streets":null,"AuthCode":null,"Authority":null,"domain":1,"new":null},
"geometry":{"type":"Point","coordinates":[34.365731,31.200798]}}
,
{"type":"Feature",
"id":16,"properties":{"mahoz":6,"semel":402,"city":"ניר יצחק","nrashut":1,"TzName":null,"streets":"232","AuthCode":null,"Authority":null,"domain":1,"new":null},
"geometry":{"type":"Point","coordinates":[34.356556,31.2332]}}
,
{"type":"Feature",
"id":17,"properties":{"mahoz":6,"semel":829,"city":"מבטחים","nrashut":1,"TzName":null,"streets":null,"AuthCode":null,"Authority":null,"domain":1,"new":null},
"geometry":{"type":"Point","coordinates":[34.406787,31.240767]}}
,
{"type":"Feature",
"id":18,"properties":{"mahoz":6,"semel":829,"city":"מבטחים","nrashut":2,"TzName":null,"streets":null,"AuthCode":null,"Authority":null,"domain":1,"new":null},
"geometry":{"type":"Point","coordinates":[34.406243,31.243225]}}
,
{"type":"Feature",
"id":19,"properties":{"mahoz":6,"semel":null,"city":null,"nrashut":null,"TzName":null,"streets":null,"AuthCode":null,"Authority":null,"domain":1,"new":null},
"geometry":{"type":"Point","coordinates":[34.396957,31.247013]}}
,
{"type":"Feature",
"id":20,"properties":{"mahoz":6,"semel":1058,"city":"שדה ניצן","nrashut":1,"TzName":null,"streets":null,"AuthCode":null,"Authority":null,"domain":1,"new":null},
"geometry":{"type":"Point","coordinates":[34.419538,31.225166]}}
,
{"type":"Feature",
"id":21,"properties":{"mahoz":6,"semel":1058,"city":"שדה ניצן","nrashut":2,"TzName":null,"streets":null,"AuthCode":null,"Authority":null,"domain":1,"new":null},
"geometry":{"type":"Point","coordinates":[34.419363,31.228298]}}
,
{"type":"Feature",
"id":22,"properties":{"mahoz":6,"semel":1058,"city":"שדה ניצן","nrashut":3,"TzName":null,"streets":null,"AuthCode":null,"Authority":null,"domain":1,"new":null},
"geometry":{"type":"Point","coordinates":[34.419352,31.229788]}}
,
{"type":"Feature",
"id":23,"properties":{"mahoz":6,"semel":null,"city":null,"nrashut":null,"TzName":"כניסה למבטחים-עמ","streets":"2310","AuthCode":10101,"Authority":"נתיבי ישראל","domain":2,"new":null},
"geometry":{"type":"Point","coordinates":[34.407702,31.246915]}}
,
{"type":"Feature",
"id":24,"properties":{"mahoz":6,"semel":318,"city":"עמיעוז","nrashut":1,"TzName":null,"streets":null,"AuthCode":null,"Authority":null,"domain":1,"new":null},
"geometry":{"type":"Point","coordinates":[34.409798,31.247993]}}
,
{"type":"Feature",
"id":25,"properties":{"mahoz":6,"semel":1136,"city":"צוחר","nrashut":1,"TzName":null,"streets":null,"AuthCode":null,"Authority":null,"domain":1,"new":null},
"geometry":{"type":"Point","coordinates":[34.424527,31.232306]}}
,
{"type":"Feature",
"id":26,"properties":{"mahoz":6,"semel":1051,"city":"תלמי אליהו","nrashut":1,"TzName":null,"streets":null,"AuthCode":null,"Authority":null,"domain":1,"new":null},
"geometry":{"type":"Point","coordinates":[34.425946,31.230429]}}
,
{"type":"Feature",
"id":27,"properties":{"mahoz":6,"semel":1046,"city":"אוהד","nrashut":1,"TzName":null,"streets":null,"AuthCode":null,"Authority":null,"domain":1,"new":null},
"geometry":{"type":"Point","coordinates":[34.431025,31.239371]}}
,
{"type":"Feature",
"id":28,"properties":{"mahoz":6,"semel":695,"city":"מגן","nrashut":1,"TzName":null,"streets":null,"AuthCode":null,"Authority":null,"domain":1,"new":null},
"geometry":{"type":"Point","coordinates":[34.427495,31.298683]}}
,
{"type":"Feature",
"id":29,"properties":{"mahoz":6,"semel":null,"city":null,"nrashut":null,"TzName":null,"streets":null,"AuthCode":null,"Authority":null,"domain":1,"new":null},
"geometry":{"type":"Point","coordinates":[34.42998,31.307191]}}
,
{"type":"Feature",
"id":30,"properties":{"mahoz":6,"semel":null,"city":null,"nrashut":null,"TzName":null,"streets":null,"AuthCode":null,"Authority":null,"domain":1,"new":null},
"geometry":{"type":"Point","coordinates":[34.432195,31.305002]}}
,
{"type":"Feature",
"id":31,"properties":{"mahoz":6,"semel":676,"city":"עין השלושה","nrashut":1,"TzName":null,"streets":null,"AuthCode":null,"Authority":null,"domain":1,"new":null},
"geometry":{"type":"Point","coordinates":[34.403602,31.35159]}}
,
{"type":"Feature",
"id":32,"properties":{"mahoz":6,"semel":null,"city":null,"nrashut":null,"TzName":null,"streets":null,"AuthCode":null,"Authority":null,"domain":1,"new":null},
"geometry":{"type":"Point","coordinates":[34.486325,31.302456]}}
,
{"type":"Feature",
"id":33,"properties":{"mahoz":6,"semel":null,"city":null,"nrashut":null,"TzName":null,"streets":null,"AuthCode":null,"Authority":null,"domain":1,"new":null},
"geometry":{"type":"Point","coordinates":[34.542499,31.313752]}}
,
{"type":"Feature",
"id":34,"properties":{"mahoz":6,"semel":null,"city":null,"nrashut":null,"TzName":null,"streets":null,"AuthCode":null,"Authority":null,"domain":1,"new":null},
"geometry":{"type":"Point","coordinates":[34.590283,31.317442]}}
,
{"type":"Feature",
"id":35,"properties":{"mahoz":6,"semel":null,"city":null,"nrashut":null,"TzName":null,"streets":null,"AuthCode":null,"Authority":null,"domain":1,"new":null},
"geometry":{"type":"Point","coordinates":[34.592541,31.317505]}}
,
{"type":"Feature",
"id":36,"properties":{"mahoz":6,"semel":1768,"city":"קריית חינוך מרחבים","nrashut":1,"TzName":null,"streets":null,"AuthCode":null,"Authority":null,"domain":1,"new":null},
"geometry":{"type":"Point","coordinates":[34.596428,31.313595]}}
,
{"type":"Feature",
"id":37,"properties":{"mahoz":6,"semel":1768,"city":"קריית חינוך מרחבים","nrashut":2,"TzName":null,"streets":null,"AuthCode":null,"Authority":null,"domain":1,"new":null},
"geometry":{"type":"Point","coordinates":[34.59552,31.315477]}}
,
{"type":"Feature",
"id":38,"properties":{"mahoz":6,"semel":1768,"city":"קריית חינוך מרחבים","nrashut":3,"TzName":null,"streets":null,"AuthCode":null,"Authority":null,"domain":1,"new":null},
"geometry":{"type":"Point","coordinates":[34.596445,31.315613]}}
,
{"type":"Feature",
"id":39,"properties":{"mahoz":6,"semel":null,"city":null,"nrashut":null,"TzName":"כניסה לקרית חינו","streets":"241","AuthCode":10101,"Authority":"נתיבי ישראל","domain":2,"new":null},
"geometry":{"type":"Point","coordinates":[34.596204,31.316587]}}
,
{"type":"Feature",
"id":40,"properties":{"mahoz":6,"semel":1768,"city":"קריית חינוך מרחבים","nrashut":4,"TzName":null,"streets":null,"AuthCode":null,"Authority":null,"domain":1,"new":null},
"geometry":{"type":"Point","coordinates":[34.597677,31.315814]}}
,
{"type":"Feature",
"id":41,"properties":{"mahoz":6,"semel":415,"city":"שוקדה","nrashut":1,"TzName":null,"streets":"2422","AuthCode":null,"Authority":null,"domain":1,"new":null},
"geometry":{"type":"Point","coordinates":[34.524214,31.422645]}}
,
{"type":"Feature",
"id":42,"properties":{"mahoz":6,"semel":1146,"city":"עלומים","nrashut":1,"TzName":null,"streets":null,"AuthCode":null,"Authority":null,"domain":1,"new":null},
"geometry":{"type":"Point","coordinates":[34.5161,31.45175]}}
,
{"type":"Feature",
"id":43,"properties":{"mahoz":6,"semel":749,"city":"פטיש","nrashut":1,"TzName":null,"streets":null,"AuthCode":null,"Authority":null,"domain":1,"new":null},
"geometry":{"type":"Point","coordinates":[34.558811,31.327066]}}
,
{"type":"Feature",
"id":44,"properties":{"mahoz":6,"semel":null,"city":null,"nrashut":null,"TzName":"כניסה למסלול - מז","streets":"2414 / הסייפן","AuthCode":10101,"Authority":"נתיבי ישראל","domain":2,"new":null},
"geometry":{"type":"Point","coordinates":[34.597081,31.330379]}}
,
{"type":"Feature",
"id":45,"properties":{"mahoz":6,"semel":2044,"city":"מלילות","nrashut":1,"TzName":null,"streets":null,"AuthCode":null,"Authority":null,"domain":1,"new":null},
"geometry":{"type":"Point","coordinates":[34.595093,31.391045]}}
,
{"type":"Feature",
"id":46,"properties":{"mahoz":6,"semel":2044,"city":"מלילות","nrashut":2,"TzName":null,"streets":null,"AuthCode":null,"Authority":null,"domain":1,"new":null},
"geometry":{"type":"Point","coordinates":[34.596083,31.389677]}}
,
{"type":"Feature",
"id":47,"properties":{"mahoz":6,"semel":246,"city":"נתיבות","nrashut":1,"TzName":null,"streets":"כפר דרום / נווה דקלים / ניסנית","AuthCode":null,"Authority":null,"domain":1,"new":null},
"geometry":{"type":"Point","coordinates":[34.566809,31.417687]}}
,
{"type":"Feature",
"id":48,"properties":{"mahoz":6,"semel":246,"city":"נתיבות","nrashut":2,"TzName":null,"streets":"נווה דקלים / רפיח ים","AuthCode":null,"Authority":null,"domain":1,"new":null},
"geometry":{"type":"Point","coordinates":[34.565272,31.418858]}}
,
{"type":"Feature",
"id":49,"properties":{"mahoz":6,"semel":246,"city":"נתיבות","nrashut":3,"TzName":null,"streets":"כפר דרום / נווה דקלים / ניסנית","AuthCode":null,"Authority":null,"domain":1,"new":null},
"geometry":{"type":"Point","coordinates":[34.569666,31.416951]}}
,
{"type":"Feature",
"id":50,"properties":{"mahoz":6,"semel":1083,"city":"תושייה","nrashut":1,"TzName":null,"streets":null,"AuthCode":null,"Authority":null,"domain":1,"new":null},
"geometry":{"type":"Point","coordinates":[34.540999,31.431523]}}
,
{"type":"Feature",
"id":51,"properties":{"mahoz":6,"semel":761,"city":"שובה","nrashut":1,"TzName":null,"streets":null,"AuthCode":null,"Authority":null,"domain":1,"new":null},
"geometry":{"type":"Point","coordinates":[34.545503,31.448151]}}
,
{"type":"Feature",
"id":52,"properties":{"mahoz":6,"semel":1065,"city":"זמרת","nrashut":1,"TzName":"כניסה לזמרת","streets":"2422","AuthCode":10101,"Authority":"נתיבי ישראל","domain":2,"new":null},
"geometry":{"type":"Point","coordinates":[34.5562,31.445623]}}
,
{"type":"Feature",
"id":53,"properties":{"mahoz":6,"semel":1065,"city":"זמרת","nrashut":2,"TzName":null,"streets":null,"AuthCode":null,"Authority":null,"domain":1,"new":null},
"geometry":{"type":"Point","coordinates":[34.559222,31.445269]}}
,
{"type":"Feature",
"id":54,"properties":{"mahoz":6,"semel":246,"city":"נתיבות","nrashut":4,"TzName":null,"streets":null,"AuthCode":null,"Authority":null,"domain":1,"new":null},
"geometry":{"type":"Point","coordinates":[34.571221,31.411681]}}
,
{"type":"Feature",
"id":55,"properties":{"mahoz":6,"semel":246,"city":"נתיבות","nrashut":5,"TzName":null,"streets":null,"AuthCode":null,"Authority":null,"domain":1,"new":null},
"geometry":{"type":"Point","coordinates":[34.572978,31.411554]}}
,
{"type":"Feature",
"id":56,"properties":{"mahoz":6,"semel":246,"city":"נתיבות","nrashut":6,"TzName":null,"streets":"חטיבת הראל / נווה דקלים / קטיף","AuthCode":null,"Authority":null,"domain":1,"new":null},
"geometry":{"type":"Point","coordinates":[34.572233,31.416299]}}
,
{"type":"Feature",
"id":57,"properties":{"mahoz":6,"semel":246,"city":"נתיבות","nrashut":7,"TzName":null,"streets":"קטיף","AuthCode":null,"Authority":null,"domain":1,"new":null},
"geometry":{"type":"Point","coordinates":[34.573654,31.414468]}}
,
{"type":"Feature",
"id":58,"properties":{"mahoz":6,"semel":246,"city":"נתיבות","nrashut":8,"TzName":null,"streets":"קטיף","AuthCode":10101,"Authority":"נתיבי ישראל","domain":2,"new":null},
"geometry":{"type":"Point","coordinates":[34.574761,31.412943]}}
,
{"type":"Feature",
"id":59,"properties":{"mahoz":6,"semel":246,"city":"נתיבות","nrashut":9,"TzName":null,"streets":"אחת עשרה הנקודות / תקומה","AuthCode":10101,"Authority":"נתיבי ישראל","domain":2,"new":null},
"geometry":{"type":"Point","coordinates":[34.575997,31.413453]}}
,
{"type":"Feature",
"id":60,"properties":{"mahoz":6,"semel":246,"city":"נתיבות","nrashut":10,"TzName":null,"streets":"הרב צבאן / רימון","AuthCode":null,"Authority":null,"domain":1,"new":null},
"geometry":{"type":"Point","coordinates":[34.578715,31.416294]}}
,
{"type":"Feature",
"id":61,"properties":{"mahoz":6,"semel":246,"city":"נתיבות","nrashut":11,"TzName":null,"streets":"קטיף","AuthCode":null,"Authority":null,"domain":1,"new":null},
"geometry":{"type":"Point","coordinates":[34.572493,31.419862]}}
,
{"type":"Feature",
"id":62,"properties":{"mahoz":6,"semel":246,"city":"נתיבות","nrashut":12,"TzName":null,"streets":"קטיף","AuthCode":null,"Authority":null,"domain":1,"new":null},
"geometry":{"type":"Point","coordinates":[34.572611,31.419946]}}
,
{"type":"Feature",
"id":63,"properties":{"mahoz":6,"semel":246,"city":"נתיבות","nrashut":13,"TzName":null,"streets":"אחת עשרה הנקודות / חטיבת הראל","AuthCode":null,"Authority":null,"domain":1,"new":null},
"geometry":{"type":"Point","coordinates":[34.574199,31.416846]}}
,
{"type":"Feature",
"id":64,"properties":{"mahoz":6,"semel":246,"city":"נתיבות","nrashut":14,"TzName":null,"streets":"אחת עשרה הנקודות / ירושלים","AuthCode":null,"Authority":null,"domain":1,"new":null},
"geometry":{"type":"Point","coordinates":[34.574398,31.4214]}}
,
{"type":"Feature",
"id":65,"properties":{"mahoz":6,"semel":246,"city":"נתיבות","nrashut":15,"TzName":null,"streets":"אזוב / אלון / הרדוף הנחלים","AuthCode":null,"Authority":null,"domain":1,"new":null},
"geometry":{"type":"Point","coordinates":[34.574799,31.424808]}}
,
{"type":"Feature",
"id":66,"properties":{"mahoz":6,"semel":246,"city":"נתיבות","nrashut":16,"TzName":null,"streets":"חטיבת הראל / יובל","AuthCode":null,"Authority":null,"domain":1,"new":null},
"geometry":{"type":"Point","coordinates":[34.575558,31.417172]}}
,
{"type":"Feature",
"id":67,"properties":{"mahoz":6,"semel":246,"city":"נתיבות","nrashut":17,"TzName":null,"streets":"הרב צבאן / ירושלים","AuthCode":null,"Authority":null,"domain":1,"new":null},
"geometry":{"type":"Point","coordinates":[34.577327,31.420407]}}
,
{"type":"Feature",
"id":68,"properties":{"mahoz":6,"semel":246,"city":"נתיבות","nrashut":18,"TzName":null,"streets":"יובל / ירושלים","AuthCode":null,"Authority":null,"domain":1,"new":null},
"geometry":{"type":"Point","coordinates":[34.575702,31.420955]}}
,
{"type":"Feature",
"id":69,"properties":{"mahoz":6,"semel":246,"city":"נתיבות","nrashut":19,"TzName":null,"streets":"אחת עשרה הנקודות / דקל / הרדוף הנחלים","AuthCode":null,"Authority":null,"domain":1,"new":null},
"geometry":{"type":"Point","coordinates":[34.576023,31.424051]}}
,
{"type":"Feature",
"id":70,"properties":{"mahoz":6,"semel":246,"city":"נתיבות","nrashut":20,"TzName":null,"streets":"פרחי ישראל","AuthCode":null,"Authority":null,"domain":1,"new":null},
"geometry":{"type":"Point","coordinates":[34.580344,31.410571]}}
,
{"type":"Feature",
"id":71,"properties":{"mahoz":6,"semel":246,"city":"נתיבות","nrashut":21,"TzName":null,"streets":"אחת עשרה הנקודות / חוצות היוצר","AuthCode":10101,"Authority":"נתיבי ישראל","domain":2,"new":null},
"geometry":{"type":"Point","coordinates":[34.581446,31.41076]}}
,
{"type":"Feature",
"id":72,"properties":{"mahoz":6,"semel":246,"city":"נתיבות","nrashut":22,"TzName":null,"streets":"גפן / זית","AuthCode":null,"Authority":null,"domain":1,"new":null},
"geometry":{"type":"Point","coordinates":[34.583829,31.414086]}}
,
{"type":"Feature",
"id":73,"properties":{"mahoz":6,"semel":246,"city":"נתיבות","nrashut":23,"TzName":null,"streets":"אחת עשרה הנקודות","AuthCode":10101,"Authority":"נתיבי ישראל","domain":2,"new":null},
"geometry":{"type":"Point","coordinates":[34.587117,31.414245]}}
,
{"type":"Feature",
"id":74,"properties":{"mahoz":6,"semel":246,"city":"נתיבות","nrashut":24,"TzName":null,"streets":"הרב גרשונוביץ / ירושלים","AuthCode":null,"Authority":null,"domain":1,"new":null},
"geometry":{"type":"Point","coordinates":[34.579357,31.419721]}}
,
{"type":"Feature",
"id":75,"properties":{"mahoz":6,"semel":246,"city":"נתיבות","nrashut":25,"TzName":null,"streets":"הרב צבאן / ירושלים","AuthCode":null,"Authority":null,"domain":1,"new":null},
"geometry":{"type":"Point","coordinates":[34.582975,31.418482]}}
,
{"type":"Feature",
"id":76,"properties":{"mahoz":6,"semel":246,"city":"נתיבות","nrashut":26,"TzName":null,"streets":"הכותל / הרב גרשונוביץ / יובל","AuthCode":null,"Authority":null,"domain":1,"new":null},
"geometry":{"type":"Point","coordinates":[34.579994,31.4209]}}
,
{"type":"Feature",
"id":77,"properties":{"mahoz":6,"semel":246,"city":"נתיבות","nrashut":27,"TzName":null,"streets":"הרב גרשונוביץ / ויצמן","AuthCode":null,"Authority":null,"domain":1,"new":null},
"geometry":{"type":"Point","coordinates":[34.582449,31.422995]}}
,
{"type":"Feature",
"id":78,"properties":{"mahoz":6,"semel":246,"city":"נתיבות","nrashut":28,"TzName":null,"streets":"ויצמן / ירושלים","AuthCode":null,"Authority":null,"domain":1,"new":null},
"geometry":{"type":"Point","coordinates":[34.58719,31.418969]}}
,
{"type":"Feature",
"id":79,"properties":{"mahoz":6,"semel":1082,"city":"מעגלים","nrashut":1,"TzName":"כניסה לגבעולים","streets":"2444","AuthCode":null,"Authority":null,"domain":1,"new":null},
"geometry":{"type":"Point","coordinates":[34.596212,31.398949]}}
,
{"type":"Feature",
"id":80,"properties":{"mahoz":6,"semel":1082,"city":"מעגלים","nrashut":2,"TzName":"כניסה לשרשרת - דר","streets":"2444","AuthCode":null,"Authority":null,"domain":1,"new":null},
"geometry":{"type":"Point","coordinates":[34.599275,31.39664]}}
,
{"type":"Feature",
"id":81,"properties":{"mahoz":6,"semel":398,"city":"שרשרת","nrashut":1,"TzName":null,"streets":null,"AuthCode":null,"Authority":null,"domain":1,"new":null},
"geometry":{"type":"Point","coordinates":[34.603575,31.405007]}}
,
{"type":"Feature",
"id":82,"properties":{"mahoz":6,"semel":246,"city":"נתיבות","nrashut":29,"TzName":null,"streets":null,"AuthCode":null,"Authority":null,"domain":1,"new":null},
"geometry":{"type":"Point","coordinates":[34.589688,31.414216]}}
,
{"type":"Feature",
"id":83,"properties":{"mahoz":6,"semel":246,"city":"נתיבות","nrashut":30,"TzName":null,"streets":"ויצמן","AuthCode":10101,"Authority":"נתיבי ישראל","domain":2,"new":null},
"geometry":{"type":"Point","coordinates":[34.59094,31.414443]}}
,
{"type":"Feature",
"id":84,"properties":{"mahoz":6,"semel":246,"city":"נתיבות","nrashut":31,"TzName":null,"streets":"אחת עשרה הנקודות / בעלי מלאכה / ויצמן","AuthCode":10101,"Authority":"נתיבי ישראל","domain":2,"new":null},
"geometry":{"type":"Point","coordinates":[34.589809,31.41605]}}
,
{"type":"Feature",
"id":85,"properties":{"mahoz":6,"semel":246,"city":"נתיבות","nrashut":32,"TzName":null,"streets":"גפן / ויצמן","AuthCode":null,"Authority":null,"domain":1,"new":null},
"geometry":{"type":"Point","coordinates":[34.588847,31.417095]}}
,
{"type":"Feature",
"id":86,"properties":{"mahoz":6,"semel":246,"city":"נתיבות","nrashut":33,"TzName":null,"streets":"הרב בר אילן / ירושלים / מלכי ישראל","AuthCode":null,"Authority":null,"domain":1,"new":null},
"geometry":{"type":"Point","coordinates":[34.589559,31.420805]}}
,
{"type":"Feature",
"id":87,"properties":{"mahoz":6,"semel":246,"city":"נתיבות","nrashut":34,"TzName":null,"streets":"בעלי מלאכה / הצורף","AuthCode":null,"Authority":null,"domain":1,"new":null},
"geometry":{"type":"Point","coordinates":[34.592946,31.417767]}}
,
{"type":"Feature",
"id":88,"properties":{"mahoz":6,"semel":246,"city":"נתיבות","nrashut":35,"TzName":null,"streets":"בעלי מלאכה","AuthCode":null,"Authority":null,"domain":1,"new":null},
"geometry":{"type":"Point","coordinates":[34.593783,31.417837]}}
,
{"type":"Feature",
"id":89,"properties":{"mahoz":6,"semel":null,"city":null,"nrashut":null,"TzName":"כניסה לנתיבות - ד","streets":"2444","AuthCode":10101,"Authority":"נתיבי ישראל","domain":2,"new":null},
"geometry":{"type":"Point","coordinates":[34.603688,31.414611]}}
,
{"type":"Feature",
"id":90,"properties":{"mahoz":6,"semel":246,"city":"נתיבות","nrashut":36,"TzName":null,"streets":"בעלי מלאכה / המסגר","AuthCode":null,"Authority":null,"domain":1,"new":null},
"geometry":{"type":"Point","coordinates":[34.597446,31.418961]}}
,
{"type":"Feature",
"id":91,"properties":{"mahoz":6,"semel":246,"city":"נתיבות","nrashut":37,"TzName":null,"streets":"בעלי מלאכה / ד\"ר סמלו יוסף","AuthCode":null,"Authority":null,"domain":1,"new":null},
"geometry":{"type":"Point","coordinates":[34.600289,31.420004]}}
,
{"type":"Feature",
"id":92,"properties":{"mahoz":6,"semel":246,"city":"נתיבות","nrashut":38,"TzName":null,"streets":"ד\"ר סמלו יוסף","AuthCode":null,"Authority":null,"domain":1,"new":null},
"geometry":{"type":"Point","coordinates":[34.601982,31.417946]}}
,
{"type":"Feature",
"id":93,"properties":{"mahoz":6,"semel":246,"city":"נתיבות","nrashut":39,"TzName":null,"streets":"ויצמן / תלתן","AuthCode":null,"Authority":null,"domain":1,"new":null},
"geometry":{"type":"Point","coordinates":[34.576189,31.42828]}}
,
{"type":"Feature",
"id":94,"properties":{"mahoz":6,"semel":246,"city":"נתיבות","nrashut":40,"TzName":null,"streets":"אחת עשרה הנקודות / ויצמן","AuthCode":null,"Authority":null,"domain":1,"new":null},
"geometry":{"type":"Point","coordinates":[34.578407,31.426373]}}
,
{"type":"Feature",
"id":95,"properties":{"mahoz":6,"semel":246,"city":"נתיבות","nrashut":41,"TzName":null,"streets":"יצחק שמיר","AuthCode":null,"Authority":null,"domain":1,"new":null},
"geometry":{"type":"Point","coordinates":[34.577694,31.434396]}}
,
{"type":"Feature",
"id":96,"properties":{"mahoz":6,"semel":246,"city":"נתיבות","nrashut":42,"TzName":null,"streets":"אריאל שרון / אריק איינשטיין","AuthCode":null,"Authority":null,"domain":1,"new":null},
"geometry":{"type":"Point","coordinates":[34.577691,31.438393]}}
,
{"type":"Feature",
"id":97,"properties":{"mahoz":6,"semel":246,"city":"נתיבות","nrashut":43,"TzName":null,"streets":"דרכי רפאל / נחלת שלמה","AuthCode":null,"Authority":null,"domain":1,"new":null},
"geometry":{"type":"Point","coordinates":[34.586147,31.427138]}}
,
{"type":"Feature",
"id":98,"properties":{"mahoz":6,"semel":246,"city":"נתיבות","nrashut":44,"TzName":null,"streets":"ז'בוטינסקי","AuthCode":null,"Authority":null,"domain":1,"new":null},
"geometry":{"type":"Point","coordinates":[34.587245,31.428606]}}
,
{"type":"Feature",
"id":99,"properties":{"mahoz":6,"semel":246,"city":"נתיבות","nrashut":45,"TzName":null,"streets":"אחת עשרה הנקודות / דרכי רפאל","AuthCode":null,"Authority":null,"domain":1,"new":null},
"geometry":{"type":"Point","coordinates":[34.583295,31.429555]}}
,
{"type":"Feature",
"id":100,"properties":{"mahoz":6,"semel":246,"city":"נתיבות","nrashut":46,"TzName":null,"streets":"אחת עשרה הנקודות / יצחק שמיר","AuthCode":null,"Authority":null,"domain":1,"new":null},
"geometry":{"type":"Point","coordinates":[34.586148,31.432809]}}
,
{"type":"Feature",
"id":101,"properties":{"mahoz":6,"semel":246,"city":"נתיבות","nrashut":47,"TzName":null,"streets":"אריאל שרון / יצחק שמיר","AuthCode":null,"Authority":null,"domain":1,"new":null},
"geometry":{"type":"Point","coordinates":[34.582237,31.434419]}}
,
{"type":"Feature",
"id":102,"properties":{"mahoz":6,"semel":246,"city":"נתיבות","nrashut":48,"TzName":null,"streets":"אריאל שרון / נעמי שמר","AuthCode":null,"Authority":null,"domain":1,"new":null},
"geometry":{"type":"Point","coordinates":[34.582227,31.436362]}}
,
{"type":"Feature",
"id":103,"properties":{"mahoz":6,"semel":246,"city":"נתיבות","nrashut":49,"TzName":null,"streets":"אהוד מנור / אריאל שרון","AuthCode":null,"Authority":null,"domain":1,"new":null},
"geometry":{"type":"Point","coordinates":[34.580302,31.437447]}}
,
{"type":"Feature",
"id":104,"properties":{"mahoz":6,"semel":665,"city":"תקומה","nrashut":1,"TzName":null,"streets":null,"AuthCode":null,"Authority":null,"domain":1,"new":null},
"geometry":{"type":"Point","coordinates":[34.578541,31.450075]}}
,
{"type":"Feature",
"id":105,"properties":{"mahoz":6,"semel":246,"city":"נתיבות","nrashut":50,"TzName":null,"streets":"הרב גרשונוביץ / ז'בוטינסקי / חזני","AuthCode":null,"Authority":null,"domain":1,"new":null},
"geometry":{"type":"Point","coordinates":[34.587753,31.427206]}}
,
{"type":"Feature",
"id":106,"properties":{"mahoz":6,"semel":246,"city":"נתיבות","nrashut":51,"TzName":null,"streets":"ז'בוטינסקי","AuthCode":null,"Authority":null,"domain":1,"new":null},
"geometry":{"type":"Point","coordinates":[34.587424,31.427835]}}
,
{"type":"Feature",
"id":107,"properties":{"mahoz":6,"semel":null,"city":null,"nrashut":null,"TzName":"מעבר גבול אילת","streets":"מצריים (90)","AuthCode":10101,"Authority":"נתיבי ישראל","domain":2,"new":null},
"geometry":{"type":"Point","coordinates":[34.904285,29.492118]}}
,
{"type":"Feature",
"id":108,"properties":{"mahoz":6,"semel":2600,"city":"אילת","nrashut":1,"TzName":null,"streets":null,"AuthCode":null,"Authority":null,"domain":1,"new":null},
"geometry":{"type":"Point","coordinates":[34.920866,29.508845]}}
,
{"type":"Feature",
"id":109,"properties":{"mahoz":6,"semel":2600,"city":"אילת","nrashut":2,"TzName":"צומת כ. לבי''ס שדה","streets":"מצריים (90)","AuthCode":10101,"Authority":"נתיבי ישראל","domain":2,"new":null},
"geometry":{"type":"Point","coordinates":[34.921126,29.508573]}}
,
{"type":"Feature",
"id":110,"properties":{"mahoz":6,"semel":2600,"city":"אילת","nrashut":3,"TzName":"כניסה לחוף אלמוג","streets":"איזמרגד / טורקיז / מצריים (90)","AuthCode":10101,"Authority":"נתיבי ישראל","domain":2,"new":null},
"geometry":{"type":"Point","coordinates":[34.9251,29.514151]}}
,
{"type":"Feature",
"id":111,"properties":{"mahoz":6,"semel":2600,"city":"אילת","nrashut":4,"TzName":null,"streets":"מצריים (90)","AuthCode":10101,"Authority":"נתיבי ישראל","domain":2,"new":null},
"geometry":{"type":"Point","coordinates":[34.927931,29.519489]}}
,
{"type":"Feature",
"id":112,"properties":{"mahoz":6,"semel":2600,"city":"אילת","nrashut":5,"TzName":null,"streets":"התבלינים / רוזמרין","AuthCode":null,"Authority":null,"domain":1,"new":null},
"geometry":{"type":"Point","coordinates":[34.930607,29.538899]}}
,
{"type":"Feature",
"id":113,"properties":{"mahoz":6,"semel":2600,"city":"אילת","nrashut":6,"TzName":null,"streets":"אסתר המלכה / יעקב אבינו","AuthCode":null,"Authority":null,"domain":1,"new":null},
"geometry":{"type":"Point","coordinates":[34.924173,29.543335]}}
,
{"type":"Feature",
"id":114,"properties":{"mahoz":6,"semel":2600,"city":"אילת","nrashut":7,"TzName":null,"streets":"הרים / חודשי השנה / יעקב אבינו","AuthCode":null,"Authority":null,"domain":1,"new":null},
"geometry":{"type":"Point","coordinates":[34.923352,29.544157]}}
,
{"type":"Feature",
"id":115,"properties":{"mahoz":6,"semel":2600,"city":"אילת","nrashut":8,"TzName":null,"streets":"אברהם אבינו / אסתר המלכה","AuthCode":null,"Authority":null,"domain":1,"new":null},
"geometry":{"type":"Point","coordinates":[34.925057,29.54395]}}
,
{"type":"Feature",
"id":116,"properties":{"mahoz":6,"semel":2600,"city":"אילת","nrashut":9,"TzName":null,"streets":"ששת הימים","AuthCode":null,"Authority":null,"domain":1,"new":null},
"geometry":{"type":"Point","coordinates":[34.926718,29.540758]}}
,
{"type":"Feature",
"id":117,"properties":{"mahoz":6,"semel":2600,"city":"אילת","nrashut":10,"TzName":null,"streets":"אברהם אבינו / רות המואביה","AuthCode":null,"Authority":null,"domain":1,"new":null},
"geometry":{"type":"Point","coordinates":[34.926782,29.542197]}}
,
{"type":"Feature",
"id":118,"properties":{"mahoz":6,"semel":2600,"city":"אילת","nrashut":11,"TzName":null,"streets":"אברהם אבינו / יצחק אבינו","AuthCode":null,"Authority":null,"domain":1,"new":null},
"geometry":{"type":"Point","coordinates":[34.925937,29.543055]}}
,
{"type":"Feature",
"id":119,"properties":{"mahoz":6,"semel":2600,"city":"אילת","nrashut":12,"TzName":null,"streets":"אסתר המלכה / שרה אימנו","AuthCode":null,"Authority":null,"domain":1,"new":null},
"geometry":{"type":"Point","coordinates":[34.926024,29.544639]}}
,
{"type":"Feature",
"id":120,"properties":{"mahoz":6,"semel":null,"city":null,"nrashut":null,"TzName":null,"streets":"חודשי השנה","AuthCode":null,"Authority":null,"domain":1,"new":null},
"geometry":{"type":"Point","coordinates":[34.92404,29.546811]}}
,
{"type":"Feature",
"id":121,"properties":{"mahoz":6,"semel":2600,"city":"אילת","nrashut":13,"TzName":null,"streets":"הרים / שרה אימנו","AuthCode":null,"Authority":null,"domain":1,"new":null},
"geometry":{"type":"Point","coordinates":[34.925239,29.545436]}}
,
{"type":"Feature",
"id":122,"properties":{"mahoz":6,"semel":2600,"city":"אילת","nrashut":14,"TzName":null,"streets":"התבלינים / שיבולים / שרה אימנו / ששת הימים","AuthCode":null,"Authority":null,"domain":1,"new":null},
"geometry":{"type":"Point","coordinates":[34.928563,29.542067]}}
,
{"type":"Feature",
"id":123,"properties":{"mahoz":6,"semel":2600,"city":"אילת","nrashut":15,"TzName":null,"streets":"רות המואביה / שרה אימנו","AuthCode":null,"Authority":null,"domain":1,"new":null},
"geometry":{"type":"Point","coordinates":[34.927746,29.5429]}}
,
{"type":"Feature",
"id":124,"properties":{"mahoz":6,"semel":2600,"city":"אילת","nrashut":16,"TzName":null,"streets":"התבלינים / פרג / שיבולים","AuthCode":null,"Authority":null,"domain":1,"new":null},
"geometry":{"type":"Point","coordinates":[34.929445,29.541182]}}
,
{"type":"Feature",
"id":125,"properties":{"mahoz":6,"semel":2600,"city":"אילת","nrashut":17,"TzName":null,"streets":"עין יהב / ששת הימים","AuthCode":null,"Authority":null,"domain":1,"new":null},
"geometry":{"type":"Point","coordinates":[34.931287,29.54402]}}
,
{"type":"Feature",
"id":126,"properties":{"mahoz":6,"semel":2600,"city":"אילת","nrashut":18,"TzName":null,"streets":"אסתר המלכה / דבורה הנביאה","AuthCode":null,"Authority":null,"domain":1,"new":null},
"geometry":{"type":"Point","coordinates":[34.927757,29.545849]}}
,
{"type":"Feature",
"id":127,"properties":{"mahoz":6,"semel":2600,"city":"אילת","nrashut":19,"TzName":null,"streets":"דבורה הנביאה / עין דור / עין עקב","AuthCode":null,"Authority":null,"domain":1,"new":null},
"geometry":{"type":"Point","coordinates":[34.928732,29.544926]}}
,
{"type":"Feature",
"id":128,"properties":{"mahoz":6,"semel":2600,"city":"אילת","nrashut":20,"TzName":null,"streets":"הרים / חודשי השנה / עין יהב","AuthCode":null,"Authority":null,"domain":1,"new":null},
"geometry":{"type":"Point","coordinates":[34.9278,29.547325]}}
,
{"type":"Feature",
"id":129,"properties":{"mahoz":6,"semel":2600,"city":"אילת","nrashut":21,"TzName":null,"streets":"עין בוקק / עין גדי","AuthCode":null,"Authority":null,"domain":1,"new":null},
"geometry":{"type":"Point","coordinates":[34.929263,29.547102]}}
,
{"type":"Feature",
"id":130,"properties":{"mahoz":6,"semel":2600,"city":"אילת","nrashut":22,"TzName":null,"streets":"עין דור / עין יהב / עין עקב","AuthCode":null,"Authority":null,"domain":1,"new":null},
"geometry":{"type":"Point","coordinates":[34.929557,29.545612]}}
,
{"type":"Feature",
"id":131,"properties":{"mahoz":6,"semel":2600,"city":"אילת","nrashut":23,"TzName":null,"streets":"עין גדי / עין עקרבים","AuthCode":null,"Authority":null,"domain":1,"new":null},
"geometry":{"type":"Point","coordinates":[34.931285,29.545525]}}
,
{"type":"Feature",
"id":132,"properties":{"mahoz":6,"semel":2600,"city":"אילת","nrashut":24,"TzName":null,"streets":"עין בוקק / עין מור","AuthCode":null,"Authority":null,"domain":1,"new":null},
"geometry":{"type":"Point","coordinates":[34.930292,29.548531]}}
,
{"type":"Feature",
"id":133,"properties":{"mahoz":6,"semel":2600,"city":"אילת","nrashut":25,"TzName":null,"streets":"הרים / עונות שנה / עין נטפים","AuthCode":null,"Authority":null,"domain":1,"new":null},
"geometry":{"type":"Point","coordinates":[34.929242,29.54983]}}
,
{"type":"Feature",
"id":134,"properties":{"mahoz":6,"semel":2600,"city":"אילת","nrashut":26,"TzName":null,"streets":"אביב / החשמונאים / הרים","AuthCode":null,"Authority":null,"domain":1,"new":null},
"geometry":{"type":"Point","coordinates":[34.929501,29.551962]}}
,
{"type":"Feature",
"id":135,"properties":{"mahoz":6,"semel":2600,"city":"אילת","nrashut":27,"TzName":null,"streets":"הגיא / הרים / יותם (12)","AuthCode":null,"Authority":null,"domain":1,"new":null},
"geometry":{"type":"Point","coordinates":[34.929701,29.553862]}}
,
{"type":"Feature",
"id":136,"properties":{"mahoz":6,"semel":2600,"city":"אילת","nrashut":28,"TzName":null,"streets":"מצריים (90)","AuthCode":10101,"Authority":"נתיבי ישראל","domain":2,"new":null},
"geometry":{"type":"Point","coordinates":[34.934809,29.526201]}}
,
{"type":"Feature",
"id":137,"properties":{"mahoz":6,"semel":2600,"city":"אילת","nrashut":29,"TzName":null,"streets":"התבלינים","AuthCode":null,"Authority":null,"domain":1,"new":null},
"geometry":{"type":"Point","coordinates":[34.932985,29.537448]}}
,
{"type":"Feature",
"id":138,"properties":{"mahoz":6,"semel":2600,"city":"אילת","nrashut":30,"TzName":null,"streets":"הבשמים / התבלינים","AuthCode":null,"Authority":null,"domain":1,"new":null},
"geometry":{"type":"Point","coordinates":[34.938053,29.538446]}}
,
{"type":"Feature",
"id":139,"properties":{"mahoz":6,"semel":2600,"city":"אילת","nrashut":31,"TzName":null,"streets":"דפנה / התבלינים","AuthCode":null,"Authority":null,"domain":1,"new":null},
"geometry":{"type":"Point","coordinates":[34.939167,29.539315]}}
,
{"type":"Feature",
"id":140,"properties":{"mahoz":6,"semel":2600,"city":"אילת","nrashut":32,"TzName":null,"streets":null,"AuthCode":null,"Authority":null,"domain":1,"new":null},
"geometry":{"type":"Point","coordinates":[34.940807,29.534358]}}
,
{"type":"Feature",
"id":141,"properties":{"mahoz":6,"semel":2600,"city":"אילת","nrashut":33,"TzName":null,"streets":"מצריים (90)","AuthCode":null,"Authority":null,"domain":1,"new":null},
"geometry":{"type":"Point","coordinates":[34.940792,29.535901]}}
,
{"type":"Feature",
"id":142,"properties":{"mahoz":6,"semel":2600,"city":"אילת","nrashut":34,"TzName":null,"streets":"מצריים (90)","AuthCode":null,"Authority":null,"domain":1,"new":null},
"geometry":{"type":"Point","coordinates":[34.942957,29.537148]}}
,
{"type":"Feature",
"id":143,"properties":{"mahoz":6,"semel":2600,"city":"אילת","nrashut":35,"TzName":null,"streets":"בני ישראל / עין נטפים","AuthCode":null,"Authority":null,"domain":1,"new":null},
"geometry":{"type":"Point","coordinates":[34.932156,29.548708]}}
,
{"type":"Feature",
"id":144,"properties":{"mahoz":6,"semel":2600,"city":"אילת","nrashut":36,"TzName":null,"streets":"עין מור / עין עקרבים","AuthCode":null,"Authority":null,"domain":1,"new":null},
"geometry":{"type":"Point","coordinates":[34.932936,29.547191]}}
,
{"type":"Feature",
"id":145,"properties":{"mahoz":6,"semel":2600,"city":"אילת","nrashut":37,"TzName":null,"streets":"עין נטפים / ששת הימים","AuthCode":null,"Authority":null,"domain":1,"new":null},
"geometry":{"type":"Point","coordinates":[34.935058,29.547612]}}
,
{"type":"Feature",
"id":146,"properties":{"mahoz":6,"semel":2600,"city":"אילת","nrashut":38,"TzName":null,"streets":"דפנה / מרגנית / מרווה","AuthCode":null,"Authority":null,"domain":1,"new":null},
"geometry":{"type":"Point","coordinates":[34.936306,29.541562]}}
,
{"type":"Feature",
"id":147,"properties":{"mahoz":6,"semel":2600,"city":"אילת","nrashut":39,"TzName":null,"streets":"דפנה / קורנית","AuthCode":null,"Authority":null,"domain":1,"new":null},
"geometry":{"type":"Point","coordinates":[34.935537,29.542169]}}
,
{"type":"Feature",
"id":148,"properties":{"mahoz":6,"semel":2600,"city":"אילת","nrashut":40,"TzName":null,"streets":"עין יהב / עין נטפים","AuthCode":null,"Authority":null,"domain":1,"new":null},
"geometry":{"type":"Point","coordinates":[34.936514,29.543248]}}
,
{"type":"Feature",
"id":149,"properties":{"mahoz":6,"semel":2600,"city":"אילת","nrashut":41,"TzName":null,"streets":"התבלינים / חטיבת הנגב / עין יהב","AuthCode":null,"Authority":null,"domain":1,"new":null},
"geometry":{"type":"Point","coordinates":[34.939298,29.54151]}}
,
{"type":"Feature",
"id":150,"properties":{"mahoz":6,"semel":2600,"city":"אילת","nrashut":42,"TzName":null,"streets":"משעול האגס / ששת הימים","AuthCode":null,"Authority":null,"domain":1,"new":null},
"geometry":{"type":"Point","coordinates":[34.935939,29.548875]}}
,
{"type":"Feature",
"id":151,"properties":{"mahoz":6,"semel":2600,"city":"אילת","nrashut":43,"TzName":null,"streets":"בני ישראל / הנבטים","AuthCode":null,"Authority":null,"domain":1,"new":null},
"geometry":{"type":"Point","coordinates":[34.932506,29.549393]}}
,
{"type":"Feature",
"id":152,"properties":{"mahoz":6,"semel":2600,"city":"אילת","nrashut":44,"TzName":null,"streets":"האדומים","AuthCode":null,"Authority":null,"domain":1,"new":null},
"geometry":{"type":"Point","coordinates":[34.932304,29.552522]}}
,
{"type":"Feature",
"id":153,"properties":{"mahoz":6,"semel":2600,"city":"אילת","nrashut":45,"TzName":null,"streets":"המדיינים","AuthCode":null,"Authority":null,"domain":1,"new":null},
"geometry":{"type":"Point","coordinates":[34.932964,29.552154]}}
,
{"type":"Feature",
"id":154,"properties":{"mahoz":6,"semel":2600,"city":"אילת","nrashut":46,"TzName":null,"streets":"משעול הלויים","AuthCode":null,"Authority":null,"domain":1,"new":null},
"geometry":{"type":"Point","coordinates":[34.935109,29.55097]}}
,
{"type":"Feature",
"id":155,"properties":{"mahoz":6,"semel":2600,"city":"אילת","nrashut":47,"TzName":null,"streets":"המואבים","AuthCode":null,"Authority":null,"domain":1,"new":null},
"geometry":{"type":"Point","coordinates":[34.933632,29.551788]}}
,
{"type":"Feature",
"id":156,"properties":{"mahoz":6,"semel":2600,"city":"אילת","nrashut":48,"TzName":null,"streets":"משעול אבובן","AuthCode":null,"Authority":null,"domain":1,"new":null},
"geometry":{"type":"Point","coordinates":[34.933129,29.554894]}}
,
{"type":"Feature",
"id":157,"properties":{"mahoz":6,"semel":2600,"city":"אילת","nrashut":49,"TzName":null,"streets":"בתרן","AuthCode":null,"Authority":null,"domain":1,"new":null},
"geometry":{"type":"Point","coordinates":[34.931777,29.55554]}}
,
{"type":"Feature",
"id":158,"properties":{"mahoz":6,"semel":2600,"city":"אילת","nrashut":50,"TzName":null,"streets":"דפדוף","AuthCode":null,"Authority":null,"domain":1,"new":null},
"geometry":{"type":"Point","coordinates":[34.932474,29.555193]}}
,
{"type":"Feature",
"id":159,"properties":{"mahoz":6,"semel":2600,"city":"אילת","nrashut":51,"TzName":null,"streets":"סולית","AuthCode":null,"Authority":null,"domain":1,"new":null},
"geometry":{"type":"Point","coordinates":[34.933847,29.554641]}}
,
{"type":"Feature",
"id":160,"properties":{"mahoz":6,"semel":2600,"city":"אילת","nrashut":52,"TzName":null,"streets":"משעול חלילן","AuthCode":null,"Authority":null,"domain":1,"new":null},
"geometry":{"type":"Point","coordinates":[34.934558,29.55453]}}
,
{"type":"Feature",
"id":161,"properties":{"mahoz":6,"semel":2600,"city":"אילת","nrashut":53,"TzName":null,"streets":"יולית ים סוף","AuthCode":null,"Authority":null,"domain":1,"new":null},
"geometry":{"type":"Point","coordinates":[34.935309,29.554615]}}
,
{"type":"Feature",
"id":162,"properties":{"mahoz":6,"semel":2600,"city":"אילת","nrashut":54,"TzName":null,"streets":"העמונים","AuthCode":null,"Authority":null,"domain":1,"new":null},
"geometry":{"type":"Point","coordinates":[34.93595,29.550023]}}
,
{"type":"Feature",
"id":163,"properties":{"mahoz":6,"semel":2600,"city":"אילת","nrashut":55,"TzName":null,"streets":"החיתים","AuthCode":null,"Authority":null,"domain":1,"new":null},
"geometry":{"type":"Point","coordinates":[34.935776,29.550605]}}
,
{"type":"Feature",
"id":164,"properties":{"mahoz":6,"semel":2600,"city":"אילת","nrashut":56,"TzName":null,"streets":"הגיא / ששת הימים","AuthCode":null,"Authority":null,"domain":1,"new":null},
"geometry":{"type":"Point","coordinates":[34.937132,29.550492]}}
,
{"type":"Feature",
"id":165,"properties":{"mahoz":6,"semel":2600,"city":"אילת","nrashut":57,"TzName":null,"streets":"סתונית / ששת הימים","AuthCode":null,"Authority":null,"domain":1,"new":null},
"geometry":{"type":"Point","coordinates":[34.938436,29.552462]}}
,
{"type":"Feature",
"id":166,"properties":{"mahoz":6,"semel":2600,"city":"אילת","nrashut":58,"TzName":null,"streets":"יותם / כריש","AuthCode":null,"Authority":null,"domain":1,"new":null},
"geometry":{"type":"Point","coordinates":[34.935909,29.554136]}}
,
{"type":"Feature",
"id":167,"properties":{"mahoz":6,"semel":2600,"city":"אילת","nrashut":59,"TzName":"כניסה לברנע","streets":"יותם / ששת הימים","AuthCode":null,"Authority":null,"domain":1,"new":null},
"geometry":{"type":"Point","coordinates":[34.938864,29.554749]}}
,
{"type":"Feature",
"id":168,"properties":{"mahoz":6,"semel":2600,"city":"אילת","nrashut":60,"TzName":null,"streets":null,"AuthCode":null,"Authority":null,"domain":1,"new":null},
"geometry":{"type":"Point","coordinates":[34.941291,29.541838]}}
,
{"type":"Feature",
"id":169,"properties":{"mahoz":6,"semel":2600,"city":"אילת","nrashut":61,"TzName":null,"streets":null,"AuthCode":null,"Authority":null,"domain":1,"new":null},
"geometry":{"type":"Point","coordinates":[34.942433,29.544153]}}
,
{"type":"Feature",
"id":170,"properties":{"mahoz":6,"semel":2600,"city":"אילת","nrashut":62,"TzName":null,"streets":null,"AuthCode":null,"Authority":null,"domain":1,"new":null},
"geometry":{"type":"Point","coordinates":[34.939659,29.545721]}}
,
{"type":"Feature",
"id":171,"properties":{"mahoz":6,"semel":2600,"city":"אילת","nrashut":63,"TzName":null,"streets":null,"AuthCode":null,"Authority":null,"domain":1,"new":null},
"geometry":{"type":"Point","coordinates":[34.939673,29.545767]}}
,
{"type":"Feature",
"id":172,"properties":{"mahoz":6,"semel":2600,"city":"אילת","nrashut":64,"TzName":null,"streets":"משעול אבוקדו","AuthCode":null,"Authority":null,"domain":1,"new":null},
"geometry":{"type":"Point","coordinates":[34.940083,29.546393]}}
,
{"type":"Feature",
"id":173,"properties":{"mahoz":6,"semel":2600,"city":"אילת","nrashut":65,"TzName":null,"streets":"חטיבת הנגב / משעול האגס","AuthCode":null,"Authority":null,"domain":1,"new":null},
"geometry":{"type":"Point","coordinates":[34.941127,29.545102]}}
,
{"type":"Feature",
"id":174,"properties":{"mahoz":6,"semel":2600,"city":"אילת","nrashut":66,"TzName":null,"streets":"משעול אלון","AuthCode":null,"Authority":null,"domain":1,"new":null},
"geometry":{"type":"Point","coordinates":[34.941073,29.546012]}}
,
{"type":"Feature",
"id":175,"properties":{"mahoz":6,"semel":2600,"city":"אילת","nrashut":67,"TzName":null,"streets":"משעול שקד","AuthCode":null,"Authority":null,"domain":1,"new":null},
"geometry":{"type":"Point","coordinates":[34.941524,29.547477]}}
,
{"type":"Feature",
"id":176,"properties":{"mahoz":6,"semel":2600,"city":"אילת","nrashut":68,"TzName":null,"streets":"הגיא / חטיבת הנגב","AuthCode":null,"Authority":null,"domain":1,"new":null},
"geometry":{"type":"Point","coordinates":[34.942583,29.54749]}}
,
{"type":"Feature",
"id":177,"properties":{"mahoz":6,"semel":2600,"city":"אילת","nrashut":69,"TzName":null,"streets":"מצריים (90)","AuthCode":null,"Authority":null,"domain":1,"new":null},
"geometry":{"type":"Point","coordinates":[34.94697,29.54133]}}
,
{"type":"Feature",
"id":178,"properties":{"mahoz":6,"semel":2600,"city":"אילת","nrashut":70,"TzName":null,"streets":null,"AuthCode":null,"Authority":null,"domain":1,"new":null},
"geometry":{"type":"Point","coordinates":[34.943691,29.545704]}}
,
{"type":"Feature",
"id":179,"properties":{"mahoz":6,"semel":2600,"city":"אילת","nrashut":71,"TzName":null,"streets":"החרצית","AuthCode":null,"Authority":null,"domain":1,"new":null},
"geometry":{"type":"Point","coordinates":[34.944516,29.548411]}}
,
{"type":"Feature",
"id":180,"properties":{"mahoz":6,"semel":2600,"city":"אילת","nrashut":72,"TzName":null,"streets":"יסמין","AuthCode":null,"Authority":null,"domain":1,"new":null},
"geometry":{"type":"Point","coordinates":[34.944909,29.547833]}}
,
{"type":"Feature",
"id":181,"properties":{"mahoz":6,"semel":2600,"city":"אילת","nrashut":73,"TzName":null,"streets":"רקפת","AuthCode":null,"Authority":null,"domain":1,"new":null},
"geometry":{"type":"Point","coordinates":[34.945317,29.547273]}}
,
{"type":"Feature",
"id":182,"properties":{"mahoz":6,"semel":2600,"city":"אילת","nrashut":74,"TzName":null,"streets":"אודם","AuthCode":null,"Authority":null,"domain":1,"new":null},
"geometry":{"type":"Point","coordinates":[34.947725,29.548624]}}
,
{"type":"Feature",
"id":183,"properties":{"mahoz":6,"semel":2600,"city":"אילת","nrashut":75,"TzName":null,"streets":null,"AuthCode":null,"Authority":null,"domain":1,"new":null},
"geometry":{"type":"Point","coordinates":[34.940085,29.554762]}}
,
{"type":"Feature",
"id":184,"properties":{"mahoz":6,"semel":2600,"city":"אילת","nrashut":76,"TzName":null,"streets":"ארגמן / סמטת המלך אחז / שחמון","AuthCode":null,"Authority":null,"domain":1,"new":null},
"geometry":{"type":"Point","coordinates":[34.941088,29.556335]}}
,
{"type":"Feature",
"id":185,"properties":{"mahoz":6,"semel":2600,"city":"אילת","nrashut":77,"TzName":null,"streets":null,"AuthCode":null,"Authority":null,"domain":1,"new":null},
"geometry":{"type":"Point","coordinates":[34.941992,29.553174]}}
,
{"type":"Feature",
"id":186,"properties":{"mahoz":6,"semel":2600,"city":"אילת","nrashut":78,"TzName":null,"streets":"ארגמן / יותם","AuthCode":null,"Authority":null,"domain":1,"new":null},
"geometry":{"type":"Point","coordinates":[34.942029,29.555291]}}
,
{"type":"Feature",
"id":187,"properties":{"mahoz":6,"semel":2600,"city":"אילת","nrashut":79,"TzName":null,"streets":"יותם / שחורת","AuthCode":null,"Authority":null,"domain":1,"new":null},
"geometry":{"type":"Point","coordinates":[34.943188,29.555455]}}
,
{"type":"Feature",
"id":188,"properties":{"mahoz":6,"semel":2600,"city":"אילת","nrashut":80,"TzName":null,"streets":"ארגמן / חטיבת הנגב","AuthCode":null,"Authority":null,"domain":1,"new":null},
"geometry":{"type":"Point","coordinates":[34.94453,29.550445]}}
,
{"type":"Feature",
"id":189,"properties":{"mahoz":6,"semel":2600,"city":"אילת","nrashut":81,"TzName":null,"streets":null,"AuthCode":null,"Authority":null,"domain":1,"new":null},
"geometry":{"type":"Point","coordinates":[34.946257,29.549612]}}
,
{"type":"Feature",
"id":190,"properties":{"mahoz":6,"semel":2600,"city":"אילת","nrashut":82,"TzName":null,"streets":"אילות / חטיבת הנגב","AuthCode":null,"Authority":null,"domain":1,"new":null},
"geometry":{"type":"Point","coordinates":[34.94676,29.552229]}}
,
{"type":"Feature",
"id":191,"properties":{"mahoz":6,"semel":2600,"city":"אילת","nrashut":83,"TzName":null,"streets":"אילות / יותם","AuthCode":null,"Authority":null,"domain":1,"new":null},
"geometry":{"type":"Point","coordinates":[34.946234,29.555281]}}
,
{"type":"Feature",
"id":192,"properties":{"mahoz":6,"semel":2600,"city":"אילת","nrashut":84,"TzName":null,"streets":"אילות / השיטה / לוס אנג'לס","AuthCode":null,"Authority":null,"domain":1,"new":null},
"geometry":{"type":"Point","coordinates":[34.946655,29.55696]}}
,
{"type":"Feature",
"id":193,"properties":{"mahoz":6,"semel":2600,"city":"אילת","nrashut":85,"TzName":null,"streets":"לשם","AuthCode":null,"Authority":null,"domain":1,"new":null},
"geometry":{"type":"Point","coordinates":[34.948357,29.548318]}}
,
{"type":"Feature",
"id":194,"properties":{"mahoz":6,"semel":2600,"city":"אילת","nrashut":86,"TzName":null,"streets":"נציץ","AuthCode":null,"Authority":null,"domain":1,"new":null},
"geometry":{"type":"Point","coordinates":[34.948987,29.548011]}}
,
{"type":"Feature",
"id":195,"properties":{"mahoz":6,"semel":2600,"city":"אילת","nrashut":87,"TzName":null,"streets":"ארגמן / הפלמ\"ח / מצריים (90)","AuthCode":null,"Authority":null,"domain":1,"new":null},
"geometry":{"type":"Point","coordinates":[34.951297,29.547042]}}
,
{"type":"Feature",
"id":196,"properties":{"mahoz":6,"semel":2600,"city":"אילת","nrashut":88,"TzName":null,"streets":"סמטת צוקים","AuthCode":null,"Authority":null,"domain":1,"new":null},
"geometry":{"type":"Point","coordinates":[34.949291,29.55077]}}
,
{"type":"Feature",
"id":197,"properties":{"mahoz":6,"semel":2600,"city":"אילת","nrashut":89,"TzName":null,"streets":"נעמה","AuthCode":null,"Authority":null,"domain":1,"new":null},
"geometry":{"type":"Point","coordinates":[34.948425,29.55159]}}
,
{"type":"Feature",
"id":198,"properties":{"mahoz":6,"semel":2600,"city":"אילת","nrashut":90,"TzName":null,"streets":"סמטת הר סיני","AuthCode":null,"Authority":null,"domain":1,"new":null},
"geometry":{"type":"Point","coordinates":[34.948929,29.551246]}}
,
{"type":"Feature",
"id":199,"properties":{"mahoz":6,"semel":2600,"city":"אילת","nrashut":91,"TzName":null,"streets":"חטיבת הנגב / יותם","AuthCode":null,"Authority":null,"domain":1,"new":null},
"geometry":{"type":"Point","coordinates":[34.948369,29.554223]}}
,
{"type":"Feature",
"id":200,"properties":{"mahoz":6,"semel":2600,"city":"אילת","nrashut":92,"TzName":null,"streets":"התמרים / חטיבת הנגב","AuthCode":null,"Authority":null,"domain":1,"new":null},
"geometry":{"type":"Point","coordinates":[34.951475,29.556831]}}
,
{"type":"Feature",
"id":201,"properties":{"mahoz":6,"semel":2600,"city":"אילת","nrashut":93,"TzName":null,"streets":"חיל ההנדסה / מצריים (90) / משעול הבז","AuthCode":null,"Authority":null,"domain":1,"new":null},
"geometry":{"type":"Point","coordinates":[34.952707,29.549453]}}
,
{"type":"Feature",
"id":202,"properties":{"mahoz":6,"semel":2600,"city":"אילת","nrashut":94,"TzName":"כיכר קניון מול ה","streets":"דרבן / הערבה (90) / יותם / מצריים (90)","AuthCode":null,"Authority":null,"domain":1,"new":null},
"geometry":{"type":"Point","coordinates":[34.953677,29.551006]}}
,
{"type":"Feature",
"id":203,"properties":{"mahoz":6,"semel":2600,"city":"אילת","nrashut":95,"TzName":null,"streets":"הפלמ\"ח","AuthCode":null,"Authority":null,"domain":1,"new":null},
"geometry":{"type":"Point","coordinates":[34.954229,29.550598]}}
,
{"type":"Feature",
"id":204,"properties":{"mahoz":6,"semel":2600,"city":"אילת","nrashut":96,"TzName":null,"streets":"גן-בנימין / התמרים / סמטת שפיפון","AuthCode":null,"Authority":null,"domain":1,"new":null},
"geometry":{"type":"Point","coordinates":[34.953854,29.554732]}}
,
{"type":"Feature",
"id":205,"properties":{"mahoz":6,"semel":2600,"city":"אילת","nrashut":97,"TzName":null,"streets":"התמרים","AuthCode":null,"Authority":null,"domain":1,"new":null},
"geometry":{"type":"Point","coordinates":[34.951922,29.556149]}}
,
{"type":"Feature",
"id":206,"properties":{"mahoz":6,"semel":2600,"city":"אילת","nrashut":98,"TzName":null,"streets":"התמרים / עין החתול","AuthCode":null,"Authority":null,"domain":1,"new":null},
"geometry":{"type":"Point","coordinates":[34.952876,29.555311]}}
,
{"type":"Feature",
"id":207,"properties":{"mahoz":6,"semel":2600,"city":"אילת","nrashut":99,"TzName":null,"streets":"הערבה (90) / התמרים","AuthCode":null,"Authority":null,"domain":1,"new":null},
"geometry":{"type":"Point","coordinates":[34.9547,29.554546]}}
,
{"type":"Feature",
"id":208,"properties":{"mahoz":6,"semel":2600,"city":"אילת","nrashut":100,"TzName":null,"streets":"דרבן / תרשיש","AuthCode":null,"Authority":null,"domain":1,"new":null},
"geometry":{"type":"Point","coordinates":[34.95631,29.552306]}}
,
{"type":"Feature",
"id":209,"properties":{"mahoz":6,"semel":2600,"city":"אילת","nrashut":101,"TzName":null,"streets":null,"AuthCode":null,"Authority":null,"domain":1,"new":null},
"geometry":{"type":"Point","coordinates":[34.958901,29.550736]}}
,
{"type":"Feature",
"id":210,"properties":{"mahoz":6,"semel":2600,"city":"אילת","nrashut":102,"TzName":null,"streets":"דרבן","AuthCode":null,"Authority":null,"domain":1,"new":null},
"geometry":{"type":"Point","coordinates":[34.957252,29.554003]}}
,
{"type":"Feature",
"id":211,"properties":{"mahoz":6,"semel":2600,"city":"אילת","nrashut":103,"TzName":null,"streets":"דרבן / קאמפן","AuthCode":null,"Authority":null,"domain":1,"new":null},
"geometry":{"type":"Point","coordinates":[34.959271,29.556872]}}
,
{"type":"Feature",
"id":212,"properties":{"mahoz":6,"semel":2600,"city":"אילת","nrashut":104,"TzName":null,"streets":"הים / סמולין","AuthCode":null,"Authority":null,"domain":1,"new":null},
"geometry":{"type":"Point","coordinates":[34.965378,29.54955]}}
,
{"type":"Feature",
"id":213,"properties":{"mahoz":6,"semel":2600,"city":"אילת","nrashut":105,"TzName":null,"streets":"הים / שופרון","AuthCode":null,"Authority":null,"domain":1,"new":null},
"geometry":{"type":"Point","coordinates":[34.966567,29.549176]}}
,
{"type":"Feature",
"id":214,"properties":{"mahoz":6,"semel":2600,"city":"אילת","nrashut":106,"TzName":null,"streets":"קאמן","AuthCode":null,"Authority":null,"domain":1,"new":null},
"geometry":{"type":"Point","coordinates":[34.964581,29.553668]}}
,
{"type":"Feature",
"id":215,"properties":{"mahoz":6,"semel":2600,"city":"אילת","nrashut":107,"TzName":null,"streets":"סמולין / קאמפן","AuthCode":null,"Authority":null,"domain":1,"new":null},
"geometry":{"type":"Point","coordinates":[34.967385,29.554352]}}
,
{"type":"Feature",
"id":216,"properties":{"mahoz":6,"semel":2600,"city":"אילת","nrashut":108,"TzName":null,"streets":"ארגמן / החותרים","AuthCode":null,"Authority":null,"domain":1,"new":null},
"geometry":{"type":"Point","coordinates":[34.935607,29.558226]}}
,
{"type":"Feature",
"id":217,"properties":{"mahoz":6,"semel":2600,"city":"אילת","nrashut":109,"TzName":null,"streets":"ארגמן / ששת הימים","AuthCode":null,"Authority":null,"domain":1,"new":null},
"geometry":{"type":"Point","coordinates":[34.938798,29.557758]}}
,
{"type":"Feature",
"id":218,"properties":{"mahoz":6,"semel":2600,"city":"אילת","nrashut":110,"TzName":null,"streets":"הספורטאים / לוס אנג'לס / ששת הימים","AuthCode":null,"Authority":null,"domain":1,"new":null},
"geometry":{"type":"Point","coordinates":[34.940842,29.56025]}}
,
{"type":"Feature",
"id":219,"properties":{"mahoz":6,"semel":2600,"city":"אילת","nrashut":111,"TzName":null,"streets":"לוס אנג'לס / סיני / שחמון","AuthCode":null,"Authority":null,"domain":1,"new":null},
"geometry":{"type":"Point","coordinates":[34.943365,29.558546]}}
,
{"type":"Feature",
"id":220,"properties":{"mahoz":6,"semel":2600,"city":"אילת","nrashut":112,"TzName":null,"streets":"פארן / צין","AuthCode":null,"Authority":null,"domain":1,"new":null},
"geometry":{"type":"Point","coordinates":[34.945459,29.560155]}}
,
{"type":"Feature",
"id":221,"properties":{"mahoz":6,"semel":2600,"city":"אילת","nrashut":113,"TzName":null,"streets":"ירושלים השלמה / מלכת שבא / ששת הימים","AuthCode":null,"Authority":null,"domain":1,"new":null},
"geometry":{"type":"Point","coordinates":[34.944495,29.564629]}}
,
{"type":"Feature",
"id":222,"properties":{"mahoz":6,"semel":2600,"city":"אילת","nrashut":114,"TzName":null,"streets":"הרים / ששת הימים","AuthCode":null,"Authority":null,"domain":1,"new":null},
"geometry":{"type":"Point","coordinates":[34.944956,29.565219]}}
,
{"type":"Feature",
"id":223,"properties":{"mahoz":6,"semel":2600,"city":"אילת","nrashut":115,"TzName":null,"streets":"אילות / ירושלים השלמה","AuthCode":null,"Authority":null,"domain":1,"new":null},
"geometry":{"type":"Point","coordinates":[34.948049,29.558877]}}
,
{"type":"Feature",
"id":224,"properties":{"mahoz":6,"semel":2600,"city":"אילת","nrashut":116,"TzName":null,"streets":"מדיין","AuthCode":null,"Authority":null,"domain":1,"new":null},
"geometry":{"type":"Point","coordinates":[34.949242,29.558161]}}
,
{"type":"Feature",
"id":225,"properties":{"mahoz":6,"semel":2600,"city":"אילת","nrashut":117,"TzName":null,"streets":"אילות / התמרים","AuthCode":null,"Authority":null,"domain":1,"new":null},
"geometry":{"type":"Point","coordinates":[34.951081,29.560157]}}
,
{"type":"Feature",
"id":226,"properties":{"mahoz":6,"semel":2600,"city":"אילת","nrashut":118,"TzName":null,"streets":"חטיבת גולני / חטיבת הנגב / עובדה","AuthCode":null,"Authority":null,"domain":1,"new":null},
"geometry":{"type":"Point","coordinates":[34.955204,29.558234]}}
,
{"type":"Feature",
"id":227,"properties":{"mahoz":6,"semel":2600,"city":"אילת","nrashut":119,"TzName":null,"streets":"אילות / חטיבת גולני","AuthCode":null,"Authority":null,"domain":1,"new":null},
"geometry":{"type":"Point","coordinates":[34.955126,29.560552]}}
,
{"type":"Feature",
"id":228,"properties":{"mahoz":6,"semel":2600,"city":"אילת","nrashut":120,"TzName":null,"streets":"המלאכה / חטיבת גולני","AuthCode":null,"Authority":null,"domain":1,"new":null},
"geometry":{"type":"Point","coordinates":[34.955232,29.563653]}}
,
{"type":"Feature",
"id":229,"properties":{"mahoz":6,"semel":2600,"city":"אילת","nrashut":121,"TzName":null,"streets":"הרים / התמרים","AuthCode":null,"Authority":null,"domain":1,"new":null},
"geometry":{"type":"Point","coordinates":[34.949707,29.567594]}}
,
{"type":"Feature",
"id":230,"properties":{"mahoz":6,"semel":2600,"city":"אילת","nrashut":122,"TzName":null,"streets":"ההשכלה / המלחה / התמרים","AuthCode":null,"Authority":null,"domain":1,"new":null},
"geometry":{"type":"Point","coordinates":[34.950618,29.566368]}}
,
{"type":"Feature",
"id":231,"properties":{"mahoz":6,"semel":2600,"city":"אילת","nrashut":123,"TzName":null,"streets":"המלחה / חטיבת גולני","AuthCode":null,"Authority":null,"domain":1,"new":null},
"geometry":{"type":"Point","coordinates":[34.955495,29.5662]}}
,
{"type":"Feature",
"id":232,"properties":{"mahoz":6,"semel":2600,"city":"אילת","nrashut":124,"TzName":null,"streets":"הערבה (90) / עובדה / קאמפן","AuthCode":null,"Authority":null,"domain":1,"new":null},
"geometry":{"type":"Point","coordinates":[34.95641,29.557761]}}
,
{"type":"Feature",
"id":233,"properties":{"mahoz":6,"semel":2600,"city":"אילת","nrashut":125,"TzName":null,"streets":"הגנן / המלאכה / הערבה (90)","AuthCode":null,"Authority":null,"domain":1,"new":null},
"geometry":{"type":"Point","coordinates":[34.960329,29.563141]}}
,
{"type":"Feature",
"id":234,"properties":{"mahoz":6,"semel":2600,"city":"אילת","nrashut":126,"TzName":null,"streets":null,"AuthCode":null,"Authority":null,"domain":1,"new":null},
"geometry":{"type":"Point","coordinates":[34.959181,29.56534]}}
,
{"type":"Feature",
"id":235,"properties":{"mahoz":6,"semel":2600,"city":"אילת","nrashut":127,"TzName":null,"streets":"הבורסקאי / חטיבת גולני / נוף מדבר","AuthCode":null,"Authority":null,"domain":1,"new":null},
"geometry":{"type":"Point","coordinates":[34.956545,29.569495]}}
,
{"type":"Feature",
"id":236,"properties":{"mahoz":6,"semel":2600,"city":"אילת","nrashut":128,"TzName":null,"streets":"הבורסקאי / הסוור","AuthCode":null,"Authority":null,"domain":1,"new":null},
"geometry":{"type":"Point","coordinates":[34.960478,29.568654]}}
,
{"type":"Feature",
"id":237,"properties":{"mahoz":6,"semel":1126,"city":"אילות","nrashut":1,"TzName":null,"streets":null,"AuthCode":null,"Authority":null,"domain":1,"new":null},
"geometry":{"type":"Point","coordinates":[34.962976,29.580187]}}
,
{"type":"Feature",
"id":238,"properties":{"mahoz":6,"semel":2600,"city":"אילת","nrashut":129,"TzName":null,"streets":"הערבה (90) / הרים","AuthCode":null,"Authority":null,"domain":1,"new":null},
"geometry":{"type":"Point","coordinates":[34.96431,29.569549]}}
,
{"type":"Feature",
"id":239,"properties":{"mahoz":6,"semel":2600,"city":"אילת","nrashut":130,"TzName":"כניסה לאילות","streets":"הערבה (90)","AuthCode":10101,"Authority":"נתיבי ישראל","domain":2,"new":null},
"geometry":{"type":"Point","coordinates":[34.967754,29.577973]}}
,
{"type":"Feature",
"id":240,"properties":{"mahoz":6,"semel":null,"city":null,"nrashut":null,"TzName":"כניסה למקורות אי","streets":"109 / 90","AuthCode":10101,"Authority":"נתיבי ישראל","domain":2,"new":null},
"geometry":{"type":"Point","coordinates":[34.969856,29.581847]}}
,
{"type":"Feature",
"id":241,"properties":{"mahoz":6,"semel":2600,"city":"אילת","nrashut":131,"TzName":null,"streets":"היוצק / הנחתום / הסוללים","AuthCode":10101,"Authority":"נתיבי ישראל","domain":2,"new":null},
"geometry":{"type":"Point","coordinates":[34.973749,29.596355]}}
,
{"type":"Feature",
"id":242,"properties":{"mahoz":6,"semel":null,"city":null,"nrashut":null,"TzName":null,"streets":null,"AuthCode":null,"Authority":null,"domain":1,"new":null},
"geometry":{"type":"Point","coordinates":[34.986199,29.608703]}}
,
{"type":"Feature",
"id":243,"properties":{"mahoz":6,"semel":21,"city":"באר אורה","nrashut":1,"TzName":null,"streets":"אורה / סמטת שיזף","AuthCode":null,"Authority":null,"domain":1,"new":null},
"geometry":{"type":"Point","coordinates":[34.986516,29.709421]}}
,
{"type":"Feature",
"id":244,"properties":{"mahoz":6,"semel":21,"city":"באר אורה","nrashut":2,"TzName":"שער יישוב באר או","streets":"אורה / עמודי שלמה","AuthCode":null,"Authority":null,"domain":1,"new":null},
"geometry":{"type":"Point","coordinates":[34.99019,29.708971]}}
,
{"type":"Feature",
"id":245,"properties":{"mahoz":6,"semel":null,"city":null,"nrashut":null,"TzName":null,"streets":null,"AuthCode":null,"Authority":null,"domain":1,"new":null},
"geometry":{"type":"Point","coordinates":[34.987983,29.787582]}}
,
{"type":"Feature",
"id":246,"properties":{"mahoz":6,"semel":null,"city":null,"nrashut":null,"TzName":null,"streets":null,"AuthCode":null,"Authority":null,"domain":1,"new":null},
"geometry":{"type":"Point","coordinates":[34.99004,29.78823]}}
,
{"type":"Feature",
"id":247,"properties":{"mahoz":6,"semel":null,"city":null,"nrashut":null,"TzName":null,"streets":null,"AuthCode":null,"Authority":null,"domain":1,"new":null},
"geometry":{"type":"Point","coordinates":[35.001313,29.713334]}}
,
{"type":"Feature",
"id":248,"properties":{"mahoz":6,"semel":null,"city":null,"nrashut":null,"TzName":null,"streets":null,"AuthCode":null,"Authority":null,"domain":1,"new":null},
"geometry":{"type":"Point","coordinates":[35.002664,29.713049]}}
,
{"type":"Feature",
"id":249,"properties":{"mahoz":6,"semel":null,"city":null,"nrashut":null,"TzName":null,"streets":null,"AuthCode":null,"Authority":null,"domain":1,"new":null},
"geometry":{"type":"Point","coordinates":[35.002926,29.719063]}}
,
{"type":"Feature",
"id":250,"properties":{"mahoz":6,"semel":null,"city":null,"nrashut":null,"TzName":null,"streets":null,"AuthCode":null,"Authority":null,"domain":1,"new":null},
"geometry":{"type":"Point","coordinates":[35.00601,29.730084]}}
,
{"type":"Feature",
"id":251,"properties":{"mahoz":6,"semel":1156,"city":"סמר","nrashut":1,"TzName":null,"streets":null,"AuthCode":null,"Authority":null,"domain":1,"new":null},
"geometry":{"type":"Point","coordinates":[35.023545,29.833996]}}
,
{"type":"Feature",
"id":252,"properties":{"mahoz":6,"semel":1266,"city":"שחרות","nrashut":1,"TzName":null,"streets":null,"AuthCode":null,"Authority":null,"domain":1,"new":null},
"geometry":{"type":"Point","coordinates":[34.999727,29.903951]}}
,
{"type":"Feature",
"id":253,"properties":{"mahoz":6,"semel":866,"city":"יוטבתה","nrashut":1,"TzName":null,"streets":null,"AuthCode":null,"Authority":null,"domain":1,"new":null},
"geometry":{"type":"Point","coordinates":[35.059975,29.890988]}}
,
{"type":"Feature",
"id":254,"properties":{"mahoz":6,"semel":866,"city":"יוטבתה","nrashut":2,"TzName":null,"streets":null,"AuthCode":null,"Authority":null,"domain":1,"new":null},
"geometry":{"type":"Point","coordinates":[35.060714,29.896212]}}
,
{"type":"Feature",
"id":255,"properties":{"mahoz":6,"semel":866,"city":"יוטבתה","nrashut":3,"TzName":null,"streets":null,"AuthCode":null,"Authority":null,"domain":1,"new":null},
"geometry":{"type":"Point","coordinates":[35.064217,29.89333]}}
,
{"type":"Feature",
"id":256,"properties":{"mahoz":6,"semel":866,"city":"יוטבתה","nrashut":4,"TzName":null,"streets":null,"AuthCode":10101,"Authority":"נתיבי ישראל","domain":2,"new":null},
"geometry":{"type":"Point","coordinates":[35.064173,29.894989]}}
,
{"type":"Feature",
"id":257,"properties":{"mahoz":6,"semel":1197,"city":"נאות סמדר","nrashut":1,"TzName":null,"streets":null,"AuthCode":null,"Authority":null,"domain":1,"new":null},
"geometry":{"type":"Point","coordinates":[35.027332,30.047954]}}
,
{"type":"Feature",
"id":258,"properties":{"mahoz":6,"semel":99,"city":"מצפה רמון","nrashut":1,"TzName":null,"streets":"גנדי (רחבעם זאבי) / הר הגמל / נחל סרפד","AuthCode":null,"Authority":null,"domain":1,"new":null},
"geometry":{"type":"Point","coordinates":[34.797951,30.60553]}}
,
{"type":"Feature",
"id":259,"properties":{"mahoz":6,"semel":99,"city":"מצפה רמון","nrashut":2,"TzName":null,"streets":"עין שחק","AuthCode":null,"Authority":null,"domain":1,"new":null},
"geometry":{"type":"Point","coordinates":[34.796065,30.612858]}}
,
{"type":"Feature",
"id":260,"properties":{"mahoz":6,"semel":99,"city":"מצפה רמון","nrashut":3,"TzName":null,"streets":"בן גוריון / גנדי (רחבעם זאבי) / מצפה הכוכבים","AuthCode":null,"Authority":null,"domain":1,"new":null},
"geometry":{"type":"Point","coordinates":[34.799124,30.607931]}}
,
{"type":"Feature",
"id":261,"properties":{"mahoz":6,"semel":99,"city":"מצפה רמון","nrashut":4,"TzName":null,"streets":"השיטה / עין המערה / עין עבדת","AuthCode":null,"Authority":null,"domain":1,"new":null},
"geometry":{"type":"Point","coordinates":[34.798251,30.613193]}}
,
{"type":"Feature",
"id":262,"properties":{"mahoz":6,"semel":99,"city":"מצפה רמון","nrashut":5,"TzName":null,"streets":"עין זיק / עין עבדת","AuthCode":null,"Authority":null,"domain":1,"new":null},
"geometry":{"type":"Point","coordinates":[34.798577,30.611304]}}
,
{"type":"Feature",
"id":263,"properties":{"mahoz":6,"semel":99,"city":"מצפה רמון","nrashut":6,"TzName":null,"streets":"נחל פארן","AuthCode":null,"Authority":null,"domain":1,"new":null},
"geometry":{"type":"Point","coordinates":[34.796284,30.617941]}}
,
{"type":"Feature",
"id":264,"properties":{"mahoz":6,"semel":99,"city":"מצפה רמון","nrashut":7,"TzName":null,"streets":"נחל כרכום","AuthCode":null,"Authority":null,"domain":1,"new":null},
"geometry":{"type":"Point","coordinates":[34.798448,30.619404]}}
,
{"type":"Feature",
"id":265,"properties":{"mahoz":6,"semel":99,"city":"מצפה רמון","nrashut":8,"TzName":null,"streets":"בן גוריון / רמון","AuthCode":null,"Authority":null,"domain":1,"new":null},
"geometry":{"type":"Point","coordinates":[34.801285,30.609422]}}
,
{"type":"Feature",
"id":266,"properties":{"mahoz":6,"semel":99,"city":"מצפה רמון","nrashut":9,"TzName":null,"streets":"עין זיק / רמון","AuthCode":null,"Authority":null,"domain":1,"new":null},
"geometry":{"type":"Point","coordinates":[34.800868,30.61166]}}
,
{"type":"Feature",
"id":267,"properties":{"mahoz":6,"semel":99,"city":"מצפה רמון","nrashut":10,"TzName":"כניסה למרכז תייר","streets":"40","AuthCode":10101,"Authority":"נתיבי ישראל","domain":2,"new":null},
"geometry":{"type":"Point","coordinates":[34.805085,30.611034]}}
,
{"type":"Feature",
"id":268,"properties":{"mahoz":6,"semel":99,"city":"מצפה רמון","nrashut":11,"TzName":null,"streets":"הר צין / הר שגיא / עין משק","AuthCode":null,"Authority":null,"domain":1,"new":null},
"geometry":{"type":"Point","coordinates":[34.800511,30.616607]}}
,
{"type":"Feature",
"id":269,"properties":{"mahoz":6,"semel":99,"city":"מצפה רמון","nrashut":12,"TzName":null,"streets":"הר עריף / הר צין / נחל ניצנה","AuthCode":null,"Authority":null,"domain":1,"new":null},
"geometry":{"type":"Point","coordinates":[34.800417,30.618509]}}
,
{"type":"Feature",
"id":270,"properties":{"mahoz":6,"semel":99,"city":"מצפה רמון","nrashut":13,"TzName":"כניסה לא תעשייה","streets":"הר עודד / קק\"ל (40)","AuthCode":10101,"Authority":"נתיבי ישראל","domain":2,"new":null},
"geometry":{"type":"Point","coordinates":[34.803779,30.622039]}}
,
{"type":"Feature",
"id":271,"properties":{"mahoz":6,"semel":99,"city":"מצפה רמון","nrashut":14,"TzName":null,"streets":"הר קטום","AuthCode":null,"Authority":null,"domain":1,"new":null},
"geometry":{"type":"Point","coordinates":[34.805822,30.626973]}}
,
{"type":"Feature",
"id":272,"properties":{"mahoz":6,"semel":99,"city":"מצפה רמון","nrashut":15,"TzName":null,"streets":null,"AuthCode":null,"Authority":null,"domain":1,"new":null},
"geometry":{"type":"Point","coordinates":[34.809443,30.628348]}}
,
{"type":"Feature",
"id":273,"properties":{"mahoz":6,"semel":1373,"city":"שלווה במדבר","nrashut":1,"TzName":null,"streets":null,"AuthCode":null,"Authority":null,"domain":1,"new":null},
"geometry":{"type":"Point","coordinates":[34.735798,30.833947]}}
,
{"type":"Feature",
"id":274,"properties":{"mahoz":6,"semel":1140,"city":"מדרשת בן-גוריון","nrashut":1,"TzName":null,"streets":"הבשמים / לאה גולדברג","AuthCode":null,"Authority":null,"domain":1,"new":null},
"geometry":{"type":"Point","coordinates":[34.77909,30.850241]}}
,
{"type":"Feature",
"id":275,"properties":{"mahoz":6,"semel":1140,"city":"מדרשת בן-גוריון","nrashut":2,"TzName":null,"streets":"לאה גולדברג / רכס חלוקים","AuthCode":null,"Authority":null,"domain":1,"new":null},
"geometry":{"type":"Point","coordinates":[34.777362,30.855844]}}
,
{"type":"Feature",
"id":276,"properties":{"mahoz":6,"semel":1140,"city":"מדרשת בן-גוריון","nrashut":3,"TzName":null,"streets":null,"AuthCode":null,"Authority":null,"domain":1,"new":null},
"geometry":{"type":"Point","coordinates":[34.781741,30.853837]}}
,
{"type":"Feature",
"id":277,"properties":{"mahoz":6,"semel":1140,"city":"מדרשת בן-גוריון","nrashut":4,"TzName":null,"streets":null,"AuthCode":null,"Authority":null,"domain":1,"new":null},
"geometry":{"type":"Point","coordinates":[34.782519,30.855104]}}
,
{"type":"Feature",
"id":278,"properties":{"mahoz":6,"semel":1140,"city":"מדרשת בן-גוריון","nrashut":5,"TzName":null,"streets":"הנבטים / שדה צין","AuthCode":null,"Authority":null,"domain":1,"new":null},
"geometry":{"type":"Point","coordinates":[34.784664,30.851551]}}
,
{"type":"Feature",
"id":279,"properties":{"mahoz":6,"semel":885,"city":"שדה בוקר","nrashut":1,"TzName":null,"streets":null,"AuthCode":null,"Authority":null,"domain":1,"new":null},
"geometry":{"type":"Point","coordinates":[34.788524,30.874919]}}
,
{"type":"Feature",
"id":280,"properties":{"mahoz":6,"semel":885,"city":"שדה בוקר","nrashut":2,"TzName":null,"streets":null,"AuthCode":null,"Authority":null,"domain":1,"new":null},
"geometry":{"type":"Point","coordinates":[34.794142,30.874562]}}
,
{"type":"Feature",
"id":281,"properties":{"mahoz":6,"semel":1340,"city":"מרחב עם","nrashut":1,"TzName":null,"streets":null,"AuthCode":10101,"Authority":"נתיבי ישראל","domain":2,"new":null},
"geometry":{"type":"Point","coordinates":[34.82822,30.889593]}}
,
{"type":"Feature",
"id":282,"properties":{"mahoz":6,"semel":1771,"city":"אורון","nrashut":1,"TzName":null,"streets":null,"AuthCode":null,"Authority":null,"domain":1,"new":null},
"geometry":{"type":"Point","coordinates":[35.018061,30.907353]}}
,
{"type":"Feature",
"id":283,"properties":{"mahoz":6,"semel":1776,"city":"מפעלי צין - ערבה","nrashut":1,"TzName":null,"streets":null,"AuthCode":null,"Authority":null,"domain":1,"new":null},
"geometry":{"type":"Point","coordinates":[35.089649,30.84275]}}
,
{"type":"Feature",
"id":284,"properties":{"mahoz":6,"semel":1341,"city":"רוח מדבר","nrashut":1,"TzName":null,"streets":null,"AuthCode":null,"Authority":null,"domain":1,"new":null},
"geometry":{"type":"Point","coordinates":[34.734597,30.981206]}}
,
{"type":"Feature",
"id":285,"properties":{"mahoz":6,"semel":1348,"city":"ביר הדאג'","nrashut":1,"TzName":null,"streets":null,"AuthCode":null,"Authority":null,"domain":1,"new":null},
"geometry":{"type":"Point","coordinates":[34.699226,31.023572]}}
,
{"type":"Feature",
"id":286,"properties":{"mahoz":6,"semel":1260,"city":"כפר רתמים","nrashut":1,"TzName":null,"streets":null,"AuthCode":null,"Authority":null,"domain":1,"new":null},
"geometry":{"type":"Point","coordinates":[34.688527,31.052843]}}
,
{"type":"Feature",
"id":287,"properties":{"mahoz":6,"semel":1260,"city":"כפר רתמים","nrashut":2,"TzName":null,"streets":null,"AuthCode":null,"Authority":null,"domain":1,"new":null},
"geometry":{"type":"Point","coordinates":[34.690973,31.052334]}}
,
{"type":"Feature",
"id":288,"properties":{"mahoz":6,"semel":1348,"city":"ביר הדאג'","nrashut":2,"TzName":null,"streets":null,"AuthCode":null,"Authority":null,"domain":1,"new":null},
"geometry":{"type":"Point","coordinates":[34.704897,31.017173]}}
,
{"type":"Feature",
"id":289,"properties":{"mahoz":6,"semel":1348,"city":"ביר הדאג'","nrashut":3,"TzName":null,"streets":null,"AuthCode":null,"Authority":null,"domain":1,"new":null},
"geometry":{"type":"Point","coordinates":[34.704187,31.024265]}}
,
{"type":"Feature",
"id":290,"properties":{"mahoz":6,"semel":1348,"city":"ביר הדאג'","nrashut":4,"TzName":null,"streets":null,"AuthCode":null,"Authority":null,"domain":1,"new":null},
"geometry":{"type":"Point","coordinates":[34.71063,31.019653]}}
,
{"type":"Feature",
"id":291,"properties":{"mahoz":6,"semel":354,"city":"רביבים","nrashut":1,"TzName":null,"streets":null,"AuthCode":null,"Authority":null,"domain":1,"new":null},
"geometry":{"type":"Point","coordinates":[34.723979,31.043586]}}
,
{"type":"Feature",
"id":292,"properties":{"mahoz":6,"semel":1177,"city":"טללים","nrashut":1,"TzName":null,"streets":null,"AuthCode":null,"Authority":null,"domain":1,"new":null},
"geometry":{"type":"Point","coordinates":[34.76965,30.989919]}}
,
{"type":"Feature",
"id":293,"properties":{"mahoz":6,"semel":1177,"city":"טללים","nrashut":2,"TzName":null,"streets":null,"AuthCode":null,"Authority":null,"domain":1,"new":null},
"geometry":{"type":"Point","coordinates":[34.772122,30.991229]}}
,
{"type":"Feature",
"id":294,"properties":{"mahoz":6,"semel":0,"city":null,"nrashut":null,"TzName":null,"streets":null,"AuthCode":null,"Authority":null,"domain":1,"new":null},
"geometry":{"type":"Point","coordinates":[34.769873,31.003611]}}
,
{"type":"Feature",
"id":295,"properties":{"mahoz":6,"semel":421,"city":"משאבי שדה","nrashut":1,"TzName":null,"streets":null,"AuthCode":null,"Authority":null,"domain":1,"new":null},
"geometry":{"type":"Point","coordinates":[34.784975,31.000039]}}
,
{"type":"Feature",
"id":296,"properties":{"mahoz":6,"semel":421,"city":"משאבי שדה","nrashut":2,"TzName":null,"streets":null,"AuthCode":null,"Authority":null,"domain":1,"new":null},
"geometry":{"type":"Point","coordinates":[34.78604,31.006782]}}
,
{"type":"Feature",
"id":297,"properties":{"mahoz":6,"semel":421,"city":"משאבי שדה","nrashut":3,"TzName":null,"streets":null,"AuthCode":null,"Authority":null,"domain":1,"new":null},
"geometry":{"type":"Point","coordinates":[34.787881,31.009008]}}
,
{"type":"Feature",
"id":298,"properties":{"mahoz":6,"semel":null,"city":null,"nrashut":null,"TzName":null,"streets":null,"AuthCode":null,"Authority":null,"domain":1,"new":null},
"geometry":{"type":"Point","coordinates":[34.83565,31.056075]}}
,
{"type":"Feature",
"id":299,"properties":{"mahoz":6,"semel":null,"city":null,"nrashut":null,"TzName":null,"streets":null,"AuthCode":null,"Authority":null,"domain":1,"new":null},
"geometry":{"type":"Point","coordinates":[34.837827,31.058176]}}
,
{"type":"Feature",
"id":300,"properties":{"mahoz":6,"semel":null,"city":null,"nrashut":null,"TzName":null,"streets":null,"AuthCode":null,"Authority":null,"domain":1,"new":null},
"geometry":{"type":"Point","coordinates":[34.839223,31.059565]}}
,
{"type":"Feature",
"id":301,"properties":{"mahoz":6,"semel":null,"city":null,"nrashut":null,"TzName":null,"streets":null,"AuthCode":null,"Authority":null,"domain":1,"new":null},
"geometry":{"type":"Point","coordinates":[34.76544,31.133134]}}
,
{"type":"Feature",
"id":302,"properties":{"mahoz":6,"semel":1770,"city":"נאות חובב","nrashut":1,"TzName":null,"streets":null,"AuthCode":null,"Authority":null,"domain":1,"new":null},
"geometry":{"type":"Point","coordinates":[34.789822,31.134642]}}
,
{"type":"Feature",
"id":303,"properties":{"mahoz":6,"semel":1770,"city":"נאות חובב","nrashut":2,"TzName":null,"streets":null,"AuthCode":null,"Authority":null,"domain":1,"new":null},
"geometry":{"type":"Point","coordinates":[34.78985,31.135349]}}
,
{"type":"Feature",
"id":304,"properties":{"mahoz":6,"semel":1770,"city":"נאות חובב","nrashut":3,"TzName":null,"streets":null,"AuthCode":null,"Authority":null,"domain":1,"new":null},
"geometry":{"type":"Point","coordinates":[34.785867,31.145657]}}
,
{"type":"Feature",
"id":305,"properties":{"mahoz":6,"semel":1770,"city":"נאות חובב","nrashut":4,"TzName":null,"streets":null,"AuthCode":null,"Authority":null,"domain":1,"new":null},
"geometry":{"type":"Point","coordinates":[34.785423,31.147841]}}
,
{"type":"Feature",
"id":306,"properties":{"mahoz":6,"semel":1770,"city":"נאות חובב","nrashut":5,"TzName":null,"streets":null,"AuthCode":10101,"Authority":"נתיבי ישראל","domain":2,"new":null},
"geometry":{"type":"Point","coordinates":[34.803627,31.135821]}}
,
{"type":"Feature",
"id":307,"properties":{"mahoz":6,"semel":1770,"city":"נאות חובב","nrashut":6,"TzName":null,"streets":null,"AuthCode":null,"Authority":null,"domain":1,"new":null},
"geometry":{"type":"Point","coordinates":[34.800491,31.139795]}}
,
{"type":"Feature",
"id":308,"properties":{"mahoz":6,"semel":1770,"city":"נאות חובב","nrashut":7,"TzName":null,"streets":null,"AuthCode":null,"Authority":null,"domain":1,"new":null},
"geometry":{"type":"Point","coordinates":[34.802574,31.138197]}}
,
{"type":"Feature",
"id":309,"properties":{"mahoz":6,"semel":1286,"city":"שגב-שלום","nrashut":1,"TzName":null,"streets":"בדר / שייך עודה","AuthCode":null,"Authority":null,"domain":1,"new":null},
"geometry":{"type":"Point","coordinates":[34.835189,31.193042]}}
,
{"type":"Feature",
"id":310,"properties":{"mahoz":6,"semel":1286,"city":"שגב-שלום","nrashut":2,"TzName":null,"streets":"מלך חוסין / שייך עודה","AuthCode":null,"Authority":null,"domain":1,"new":null},
"geometry":{"type":"Point","coordinates":[34.837465,31.192481]}}
,
{"type":"Feature",
"id":311,"properties":{"mahoz":6,"semel":1286,"city":"שגב-שלום","nrashut":3,"TzName":null,"streets":"סידנא יוסף / שייך עודה","AuthCode":null,"Authority":null,"domain":1,"new":null},
"geometry":{"type":"Point","coordinates":[34.838378,31.193203]}}
,
{"type":"Feature",
"id":312,"properties":{"mahoz":6,"semel":1286,"city":"שגב-שלום","nrashut":4,"TzName":null,"streets":null,"AuthCode":null,"Authority":null,"domain":1,"new":null},
"geometry":{"type":"Point","coordinates":[34.842457,31.18607]}}
,
{"type":"Feature",
"id":313,"properties":{"mahoz":6,"semel":1286,"city":"שגב-שלום","nrashut":5,"TzName":null,"streets":null,"AuthCode":null,"Authority":null,"domain":1,"new":null},
"geometry":{"type":"Point","coordinates":[34.842609,31.189273]}}
,
{"type":"Feature",
"id":314,"properties":{"mahoz":6,"semel":null,"city":null,"nrashut":null,"TzName":null,"streets":"הבשמים / הטייסים (2335)","AuthCode":null,"Authority":null,"domain":1,"new":null},
"geometry":{"type":"Point","coordinates":[34.63376,31.293045]}}
,
{"type":"Feature",
"id":315,"properties":{"mahoz":6,"semel":31,"city":"אופקים","nrashut":1,"TzName":null,"streets":"דקל הדום / הבשמים","AuthCode":null,"Authority":null,"domain":1,"new":null},
"geometry":{"type":"Point","coordinates":[34.63559,31.293531]}}
,
{"type":"Feature",
"id":316,"properties":{"mahoz":6,"semel":31,"city":"אופקים","nrashut":2,"TzName":null,"streets":"ברוש / דקל / צבעוני","AuthCode":null,"Authority":null,"domain":1,"new":null},
"geometry":{"type":"Point","coordinates":[34.610819,31.304233]}}
,
{"type":"Feature",
"id":317,"properties":{"mahoz":6,"semel":31,"city":"אופקים","nrashut":3,"TzName":null,"streets":"סיירת שקד (2414)","AuthCode":null,"Authority":null,"domain":1,"new":null},
"geometry":{"type":"Point","coordinates":[34.608554,31.306185]}}
,
{"type":"Feature",
"id":318,"properties":{"mahoz":6,"semel":31,"city":"אופקים","nrashut":4,"TzName":null,"streets":"העצמאות / חט עציוני","AuthCode":null,"Authority":null,"domain":1,"new":null},
"geometry":{"type":"Point","coordinates":[34.60893,31.308561]}}
,
{"type":"Feature",
"id":319,"properties":{"mahoz":6,"semel":31,"city":"אופקים","nrashut":5,"TzName":null,"streets":"בית וגן (2414) / כליל החורש / פרי מגדים","AuthCode":null,"Authority":null,"domain":1,"new":null},
"geometry":{"type":"Point","coordinates":[34.611804,31.306329]}}
,
{"type":"Feature",
"id":320,"properties":{"mahoz":6,"semel":31,"city":"אופקים","nrashut":6,"TzName":null,"streets":"אקליפטוס / דובדבן","AuthCode":null,"Authority":null,"domain":1,"new":null},
"geometry":{"type":"Point","coordinates":[34.618012,31.300398]}}
,
{"type":"Feature",
"id":321,"properties":{"mahoz":6,"semel":31,"city":"אופקים","nrashut":7,"TzName":null,"streets":"ברוש / כליל החורש","AuthCode":null,"Authority":null,"domain":1,"new":null},
"geometry":{"type":"Point","coordinates":[34.61213,31.302505]}}
,
{"type":"Feature",
"id":322,"properties":{"mahoz":6,"semel":31,"city":"אופקים","nrashut":8,"TzName":null,"streets":"דקל / כליל החורש","AuthCode":null,"Authority":null,"domain":1,"new":null},
"geometry":{"type":"Point","coordinates":[34.611982,31.304311]}}
,
{"type":"Feature",
"id":323,"properties":{"mahoz":6,"semel":31,"city":"אופקים","nrashut":9,"TzName":null,"streets":"האורן / פרי מגדים","AuthCode":null,"Authority":null,"domain":1,"new":null},
"geometry":{"type":"Point","coordinates":[34.611945,31.308789]}}
,
{"type":"Feature",
"id":324,"properties":{"mahoz":6,"semel":31,"city":"אופקים","nrashut":10,"TzName":null,"streets":"בית וגן (2414) / החרוב / צאלון","AuthCode":null,"Authority":null,"domain":1,"new":null},
"geometry":{"type":"Point","coordinates":[34.615841,31.306628]}}
,
{"type":"Feature",
"id":325,"properties":{"mahoz":6,"semel":31,"city":"אופקים","nrashut":11,"TzName":null,"streets":"בית וגן (2414) / הטייסים (2335) / הרצל (2335) / צאלון","AuthCode":null,"Authority":null,"domain":1,"new":null},
"geometry":{"type":"Point","coordinates":[34.619628,31.306715]}}
,
{"type":"Feature",
"id":326,"properties":{"mahoz":6,"semel":31,"city":"אופקים","nrashut":12,"TzName":null,"streets":"מבצע הראל / סיירת שקד (2414)","AuthCode":null,"Authority":null,"domain":1,"new":null},
"geometry":{"type":"Point","coordinates":[34.606766,31.312652]}}
,
{"type":"Feature",
"id":327,"properties":{"mahoz":6,"semel":31,"city":"אופקים","nrashut":13,"TzName":null,"streets":"העצמאות / מבצע חירם / מבצע יואב","AuthCode":null,"Authority":null,"domain":1,"new":null},
"geometry":{"type":"Point","coordinates":[34.608217,31.310983]}}
,
{"type":"Feature",
"id":328,"properties":{"mahoz":6,"semel":31,"city":"אופקים","nrashut":14,"TzName":null,"streets":null,"AuthCode":null,"Authority":null,"domain":1,"new":null},
"geometry":{"type":"Point","coordinates":[34.608566,31.31465]}}
,
{"type":"Feature",
"id":329,"properties":{"mahoz":6,"semel":31,"city":"אופקים","nrashut":15,"TzName":null,"streets":"הרב חורי","AuthCode":null,"Authority":null,"domain":1,"new":null},
"geometry":{"type":"Point","coordinates":[34.610688,31.315797]}}
,
{"type":"Feature",
"id":330,"properties":{"mahoz":6,"semel":31,"city":"אופקים","nrashut":16,"TzName":null,"streets":"הרב אבוחצירה","AuthCode":null,"Authority":null,"domain":1,"new":null},
"geometry":{"type":"Point","coordinates":[34.615783,31.313579]}}
,
{"type":"Feature",
"id":331,"properties":{"mahoz":6,"semel":31,"city":"אופקים","nrashut":17,"TzName":null,"streets":"הרב אבוחצירה","AuthCode":null,"Authority":null,"domain":1,"new":null},
"geometry":{"type":"Point","coordinates":[34.615631,31.315287]}}
,
{"type":"Feature",
"id":332,"properties":{"mahoz":6,"semel":31,"city":"אופקים","nrashut":18,"TzName":null,"streets":"הרב חורי / קבוץ גלויות / קדש","AuthCode":null,"Authority":null,"domain":1,"new":null},
"geometry":{"type":"Point","coordinates":[34.61457,31.316592]}}
,
{"type":"Feature",
"id":333,"properties":{"mahoz":6,"semel":null,"city":null,"nrashut":null,"TzName":"כניסה לפדויים","streets":"241","AuthCode":10101,"Authority":"נתיבי ישראל","domain":2,"new":null},
"geometry":{"type":"Point","coordinates":[34.615761,31.321489]}}
,
{"type":"Feature",
"id":334,"properties":{"mahoz":6,"semel":31,"city":"אופקים","nrashut":19,"TzName":null,"streets":"המלאכה / הנשיא / הרצל (2335)","AuthCode":null,"Authority":null,"domain":1,"new":null},
"geometry":{"type":"Point","coordinates":[34.619986,31.319469]}}
,
{"type":"Feature",
"id":335,"properties":{"mahoz":6,"semel":31,"city":"אופקים","nrashut":20,"TzName":null,"streets":"אפיקים בנגב / הרצל (2335) / קבוץ גלויות","AuthCode":null,"Authority":null,"domain":1,"new":null},
"geometry":{"type":"Point","coordinates":[34.619693,31.321269]}}
,
{"type":"Feature",
"id":336,"properties":{"mahoz":6,"semel":31,"city":"אופקים","nrashut":21,"TzName":null,"streets":"ירושלים / ישי / שמואל הרואה","AuthCode":null,"Authority":null,"domain":1,"new":null},
"geometry":{"type":"Point","coordinates":[34.627693,31.301471]}}
,
{"type":"Feature",
"id":337,"properties":{"mahoz":6,"semel":31,"city":"אופקים","nrashut":22,"TzName":null,"streets":"החיד\"א / הרצל (2335) / שרת","AuthCode":null,"Authority":null,"domain":1,"new":null},
"geometry":{"type":"Point","coordinates":[34.620777,31.309451]}}
,
{"type":"Feature",
"id":338,"properties":{"mahoz":6,"semel":31,"city":"אופקים","nrashut":23,"TzName":null,"streets":"עמרם בן דיואן","AuthCode":null,"Authority":null,"domain":1,"new":null},
"geometry":{"type":"Point","coordinates":[34.623596,31.307881]}}
,
{"type":"Feature",
"id":339,"properties":{"mahoz":6,"semel":31,"city":"אופקים","nrashut":24,"TzName":null,"streets":"אודם / החיד\"א / עמרם בן דיואן","AuthCode":null,"Authority":null,"domain":1,"new":null},
"geometry":{"type":"Point","coordinates":[34.623961,31.308788]}}
,
{"type":"Feature",
"id":340,"properties":{"mahoz":6,"semel":31,"city":"אופקים","nrashut":25,"TzName":null,"streets":null,"AuthCode":null,"Authority":null,"domain":1,"new":null},
"geometry":{"type":"Point","coordinates":[34.624495,31.303461]}}
,
{"type":"Feature",
"id":341,"properties":{"mahoz":6,"semel":31,"city":"אופקים","nrashut":26,"TzName":null,"streets":"בוזגלו דוד / הטייסים (2335)","AuthCode":null,"Authority":null,"domain":1,"new":null},
"geometry":{"type":"Point","coordinates":[34.62753,31.3039]}}
,
{"type":"Feature",
"id":342,"properties":{"mahoz":6,"semel":31,"city":"אופקים","nrashut":27,"TzName":"כניסה לאופקים - ד","streets":"הטייסים (2335) / ישרים / קהילת מטרו ווסט","AuthCode":null,"Authority":null,"domain":1,"new":null},
"geometry":{"type":"Point","coordinates":[34.633246,31.296882]}}
,
{"type":"Feature",
"id":343,"properties":{"mahoz":6,"semel":31,"city":"אופקים","nrashut":28,"TzName":null,"streets":"הבשמים / הרי אילת","AuthCode":null,"Authority":null,"domain":1,"new":null},
"geometry":{"type":"Point","coordinates":[34.636246,31.294911]}}
,
{"type":"Feature",
"id":344,"properties":{"mahoz":6,"semel":31,"city":"אופקים","nrashut":29,"TzName":null,"streets":"הבשמים / הנגב / קהילת מטרו ווסט","AuthCode":null,"Authority":null,"domain":1,"new":null},
"geometry":{"type":"Point","coordinates":[34.635753,31.297151]}}
,
{"type":"Feature",
"id":345,"properties":{"mahoz":6,"semel":31,"city":"אופקים","nrashut":30,"TzName":null,"streets":"הטייסים (2335)","AuthCode":null,"Authority":null,"domain":1,"new":null},
"geometry":{"type":"Point","coordinates":[34.633487,31.30175]}}
,
{"type":"Feature",
"id":346,"properties":{"mahoz":6,"semel":31,"city":"אופקים","nrashut":31,"TzName":null,"streets":"הטייסים (2335) / ירושלים","AuthCode":null,"Authority":null,"domain":1,"new":null},
"geometry":{"type":"Point","coordinates":[34.628392,31.303487]}}
,
{"type":"Feature",
"id":347,"properties":{"mahoz":6,"semel":31,"city":"אופקים","nrashut":32,"TzName":null,"streets":"בוזגלו דוד / בצלאל / החיד\"א","AuthCode":null,"Authority":null,"domain":1,"new":null},
"geometry":{"type":"Point","coordinates":[34.628494,31.307795]}}
,
{"type":"Feature",
"id":348,"properties":{"mahoz":6,"semel":31,"city":"אופקים","nrashut":33,"TzName":null,"streets":"בצלאל / קהילות בן יעקב","AuthCode":null,"Authority":null,"domain":1,"new":null},
"geometry":{"type":"Point","coordinates":[34.628572,31.309609]}}
,
{"type":"Feature",
"id":349,"properties":{"mahoz":6,"semel":null,"city":null,"nrashut":null,"TzName":null,"streets":null,"AuthCode":null,"Authority":null,"domain":1,"new":null},
"geometry":{"type":"Point","coordinates":[34.631464,31.307746]}}
,
{"type":"Feature",
"id":350,"properties":{"mahoz":6,"semel":31,"city":"אופקים","nrashut":34,"TzName":null,"streets":"הרמב\"ם / יהדות דרום אפריקה","AuthCode":null,"Authority":null,"domain":1,"new":null},
"geometry":{"type":"Point","coordinates":[34.622272,31.315647]}}
,
{"type":"Feature",
"id":351,"properties":{"mahoz":6,"semel":31,"city":"אופקים","nrashut":35,"TzName":null,"streets":"יהדות דרום אפריקה / עולי הגרדום","AuthCode":null,"Authority":null,"domain":1,"new":null},
"geometry":{"type":"Point","coordinates":[34.62336,31.315727]}}
,
{"type":"Feature",
"id":352,"properties":{"mahoz":6,"semel":31,"city":"אופקים","nrashut":36,"TzName":null,"streets":"ז'בוטינסקי / נחושתן","AuthCode":null,"Authority":null,"domain":1,"new":null},
"geometry":{"type":"Point","coordinates":[34.623576,31.31839]}}
,
{"type":"Feature",
"id":353,"properties":{"mahoz":6,"semel":31,"city":"אופקים","nrashut":37,"TzName":null,"streets":"אפיקים בנגב / הכשרת הישוב","AuthCode":null,"Authority":null,"domain":1,"new":null},
"geometry":{"type":"Point","coordinates":[34.622626,31.321575]}}
,
{"type":"Feature",
"id":354,"properties":{"mahoz":6,"semel":31,"city":"אופקים","nrashut":38,"TzName":null,"streets":"אפיקים בנגב / תוצרת הארץ","AuthCode":null,"Authority":null,"domain":1,"new":null},
"geometry":{"type":"Point","coordinates":[34.62719,31.321485]}}
,
{"type":"Feature",
"id":355,"properties":{"mahoz":6,"semel":31,"city":"אופקים","nrashut":39,"TzName":null,"streets":"בצלאל / הרתך","AuthCode":null,"Authority":null,"domain":1,"new":null},
"geometry":{"type":"Point","coordinates":[34.629022,31.314365]}}
,
{"type":"Feature",
"id":356,"properties":{"mahoz":6,"semel":31,"city":"אופקים","nrashut":40,"TzName":null,"streets":"בצלאל / ז'בוטינסקי","AuthCode":null,"Authority":null,"domain":1,"new":null},
"geometry":{"type":"Point","coordinates":[34.629511,31.317296]}}
,
{"type":"Feature",
"id":357,"properties":{"mahoz":6,"semel":31,"city":"אופקים","nrashut":41,"TzName":null,"streets":"אפיקים בנגב","AuthCode":null,"Authority":null,"domain":1,"new":null},
"geometry":{"type":"Point","coordinates":[34.633164,31.321138]}}
,
{"type":"Feature",
"id":358,"properties":{"mahoz":6,"semel":31,"city":"אופקים","nrashut":42,"TzName":null,"streets":"הרי אילת","AuthCode":null,"Authority":null,"domain":1,"new":null},
"geometry":{"type":"Point","coordinates":[34.638324,31.294886]}}
,
{"type":"Feature",
"id":359,"properties":{"mahoz":6,"semel":31,"city":"אופקים","nrashut":43,"TzName":null,"streets":"הר חורשה","AuthCode":null,"Authority":null,"domain":1,"new":null},
"geometry":{"type":"Point","coordinates":[34.637933,31.296429]}}
,
{"type":"Feature",
"id":360,"properties":{"mahoz":6,"semel":31,"city":"אופקים","nrashut":44,"TzName":null,"streets":"הרי אילת / מכתש רמון","AuthCode":null,"Authority":null,"domain":1,"new":null},
"geometry":{"type":"Point","coordinates":[34.640405,31.295348]}}
,
{"type":"Feature",
"id":361,"properties":{"mahoz":6,"semel":31,"city":"אופקים","nrashut":45,"TzName":null,"streets":"הר חורשה / הר יעלון / מכתש רמון","AuthCode":null,"Authority":null,"domain":1,"new":null},
"geometry":{"type":"Point","coordinates":[34.639757,31.296771]}}
,
{"type":"Feature",
"id":362,"properties":{"mahoz":6,"semel":31,"city":"אופקים","nrashut":46,"TzName":null,"streets":"הציונות / קהילת מטרו ווסט","AuthCode":null,"Authority":null,"domain":1,"new":null},
"geometry":{"type":"Point","coordinates":[34.637599,31.298249]}}
,
{"type":"Feature",
"id":363,"properties":{"mahoz":6,"semel":31,"city":"אופקים","nrashut":47,"TzName":null,"streets":"הנגב / הציונות","AuthCode":null,"Authority":null,"domain":1,"new":null},
"geometry":{"type":"Point","coordinates":[34.63758,31.299463]}}
,
{"type":"Feature",
"id":364,"properties":{"mahoz":6,"semel":31,"city":"אופקים","nrashut":48,"TzName":null,"streets":"הציונות","AuthCode":null,"Authority":null,"domain":1,"new":null},
"geometry":{"type":"Point","coordinates":[34.637584,31.3018]}}
,
{"type":"Feature",
"id":365,"properties":{"mahoz":6,"semel":31,"city":"אופקים","nrashut":49,"TzName":null,"streets":"הנגב / מכתש רמון / קהילת מטרו ווסט","AuthCode":null,"Authority":null,"domain":1,"new":null},
"geometry":{"type":"Point","coordinates":[34.639516,31.298179]}}
,
{"type":"Feature",
"id":366,"properties":{"mahoz":6,"semel":31,"city":"אופקים","nrashut":50,"TzName":null,"streets":"דקל הדום / מכתש רמון / נחל רמון","AuthCode":null,"Authority":null,"domain":1,"new":null},
"geometry":{"type":"Point","coordinates":[34.641531,31.294034]}}
,
{"type":"Feature",
"id":367,"properties":{"mahoz":6,"semel":397,"city":"חצרים","nrashut":1,"TzName":null,"streets":null,"AuthCode":null,"Authority":null,"domain":1,"new":null},
"geometry":{"type":"Point","coordinates":[34.716682,31.240649]}}
,
{"type":"Feature",
"id":368,"properties":{"mahoz":6,"semel":397,"city":"חצרים","nrashut":2,"TzName":null,"streets":null,"AuthCode":null,"Authority":null,"domain":1,"new":null},
"geometry":{"type":"Point","coordinates":[34.718687,31.241233]}}
,
{"type":"Feature",
"id":369,"properties":{"mahoz":6,"semel":709,"city":"תפרח","nrashut":1,"TzName":null,"streets":null,"AuthCode":null,"Authority":null,"domain":1,"new":null},
"geometry":{"type":"Point","coordinates":[34.675255,31.325134]}}
,
{"type":"Feature",
"id":370,"properties":{"mahoz":6,"semel":709,"city":"תפרח","nrashut":2,"TzName":null,"streets":null,"AuthCode":null,"Authority":null,"domain":1,"new":null},
"geometry":{"type":"Point","coordinates":[34.686675,31.323178]}}
,
{"type":"Feature",
"id":371,"properties":{"mahoz":6,"semel":2021,"city":"אשל הנשיא","nrashut":1,"TzName":null,"streets":null,"AuthCode":null,"Authority":null,"domain":1,"new":null},
"geometry":{"type":"Point","coordinates":[34.699654,31.326442]}}
,
{"type":"Feature",
"id":372,"properties":{"mahoz":6,"semel":null,"city":null,"nrashut":null,"TzName":null,"streets":null,"AuthCode":null,"Authority":null,"domain":1,"new":null},
"geometry":{"type":"Point","coordinates":[34.726088,31.268149]}}
,
{"type":"Feature",
"id":373,"properties":{"mahoz":6,"semel":0,"city":null,"nrashut":null,"TzName":null,"streets":null,"AuthCode":null,"Authority":null,"domain":1,"new":null},
"geometry":{"type":"Point","coordinates":[34.729774,31.316992]}}
,
{"type":"Feature",
"id":374,"properties":{"mahoz":6,"semel":762,"city":"בטחה","nrashut":1,"TzName":null,"streets":null,"AuthCode":null,"Authority":null,"domain":1,"new":null},
"geometry":{"type":"Point","coordinates":[34.633166,31.332026]}}
,
{"type":"Feature",
"id":375,"properties":{"mahoz":6,"semel":null,"city":null,"nrashut":null,"TzName":null,"streets":null,"AuthCode":null,"Authority":null,"domain":1,"new":null},
"geometry":{"type":"Point","coordinates":[34.657873,31.337674]}}
,
{"type":"Feature",
"id":376,"properties":{"mahoz":6,"semel":2060,"city":"ברוש","nrashut":1,"TzName":"כניסה לתאשור","streets":"2544","AuthCode":null,"Authority":null,"domain":1,"new":null},
"geometry":{"type":"Point","coordinates":[34.638395,31.368989]}}
,
{"type":"Feature",
"id":377,"properties":{"mahoz":6,"semel":0,"city":null,"nrashut":null,"TzName":null,"streets":null,"AuthCode":null,"Authority":null,"domain":1,"new":null},
"geometry":{"type":"Point","coordinates":[34.611263,31.412965]}}
,
{"type":"Feature",
"id":378,"properties":{"mahoz":6,"semel":723,"city":"בית הגדי","nrashut":1,"TzName":null,"streets":null,"AuthCode":null,"Authority":null,"domain":1,"new":null},
"geometry":{"type":"Point","coordinates":[34.605164,31.42406]}}
,
{"type":"Feature",
"id":379,"properties":{"mahoz":6,"semel":0,"city":null,"nrashut":null,"TzName":null,"streets":null,"AuthCode":null,"Authority":null,"domain":1,"new":null},
"geometry":{"type":"Point","coordinates":[34.613723,31.412703]}}
,
{"type":"Feature",
"id":380,"properties":{"mahoz":6,"semel":0,"city":null,"nrashut":null,"TzName":null,"streets":null,"AuthCode":null,"Authority":null,"domain":1,"new":null},
"geometry":{"type":"Point","coordinates":[34.615353,31.416319]}}
,
{"type":"Feature",
"id":381,"properties":{"mahoz":6,"semel":0,"city":null,"nrashut":null,"TzName":null,"streets":null,"AuthCode":null,"Authority":null,"domain":1,"new":null},
"geometry":{"type":"Point","coordinates":[34.618201,31.412199]}}
,
{"type":"Feature",
"id":382,"properties":{"mahoz":6,"semel":0,"city":null,"nrashut":null,"TzName":null,"streets":null,"AuthCode":null,"Authority":null,"domain":1,"new":null},