{"name":"ramzor|","type":"FeatureCollection","property_names":["mahoz","semel","city","nrashut","TzName","streets","Authority","domain","new"],
"features":[
{"type":"Feature",
"id":1,"properties":{"mahoz":6,"semel":246,"city":"נתיבות","nrashut":1,"TzName":"כניסה לנתיבות","streets":"25 / ירושלים","Authority":"נתיבי ישראל","domain":2,"new":null},
"geometry":{"type":"Point","coordinates":[34.601657,31.42498]}}
,
{"type":"Feature",
"id":2,"properties":{"mahoz":6,"semel":723,"city":"בית הגדי","nrashut":1,"TzName":"צומת נתיבות","streets":"25 / 34","Authority":"נתיבי ישראל","domain":2,"new":null},
"geometry":{"type":"Point","coordinates":[34.599764,31.429778]}}
,
{"type":"Feature",
"id":3,"properties":{"mahoz":6,"semel":2600,"city":"אילת","nrashut":1,"TzName":"כניסה לבאר אורה","streets":"1095 / 90","Authority":"נתיבי ישראל","domain":2,"new":1},
"geometry":{"type":"Point","coordinates":[34.997275,29.706752]}}
,
{"type":"Feature",
"id":4,"properties":{"mahoz":6,"semel":2600,"city":"אילת","nrashut":2,"TzName":null,"streets":"90","Authority":"נתיבי ישראל","domain":2,"new":null},
"geometry":{"type":"Point","coordinates":[34.997936,29.708915]}}
,
{"type":"Feature",
"id":5,"properties":{"mahoz":6,"semel":5548,"city":"רמת הנגב","nrashut":1,"TzName":null,"streets":"40","Authority":"נתיבי ישראל","domain":2,"new":1},
"geometry":{"type":"Point","coordinates":[34.766797,30.987119]}}
,
{"type":"Feature",
"id":6,"properties":{"mahoz":6,"semel":421,"city":"משאבי שדה","nrashut":1,"TzName":"צומת משאבים","streets":"222 / 40","Authority":"נתיבי ישראל","domain":2,"new":1},
"geometry":{"type":"Point","coordinates":[34.780483,31.010149]}}
,
{"type":"Feature",
"id":7,"properties":{"mahoz":6,"semel":831,"city":"ירוחם","nrashut":1,"TzName":"כניסה לעיר הבה\"ד","streets":"40","Authority":"נתיבי ישראל","domain":2,"new":null},
"geometry":{"type":"Point","coordinates":[34.8333,31.057534]}}
,
{"type":"Feature",
"id":8,"properties":{"mahoz":6,"semel":9971,"city":"שטח מדינה אזור הסייג","nrashut":1,"TzName":"כניסה לרמת בקע","streets":"2241 / 40","Authority":"נתיבי ישראל","domain":2,"new":null},
"geometry":{"type":"Point","coordinates":[34.826892,31.100035]}}
,
{"type":"Feature",
"id":9,"properties":{"mahoz":6,"semel":5548,"city":"רמת הנגב","nrashut":2,"TzName":"צומת הנגב","streets":"224 / 40","Authority":"נתיבי ישראל","domain":2,"new":null},
"geometry":{"type":"Point","coordinates":[34.838481,31.066526]}}
,
{"type":"Feature",
"id":10,"properties":{"mahoz":6,"semel":9971,"city":"שטח מדינה אזור הסייג","nrashut":2,"TzName":"כניסה לתראבין א","streets":"40","Authority":"נתיבי ישראל","domain":2,"new":null},
"geometry":{"type":"Point","coordinates":[34.80466,31.167448]}}
,
{"type":"Feature",
"id":11,"properties":{"mahoz":6,"semel":939,"city":"מסעודין אל עזאזמה","nrashut":1,"TzName":"צומת אוהלים - הנו","streets":"406","Authority":"נתיבי ישראל","domain":2,"new":null},
"geometry":{"type":"Point","coordinates":[34.805417,31.19132]}}
,
{"type":"Feature",
"id":12,"properties":{"mahoz":6,"semel":5542,"city":"מרחבים","nrashut":1,"TzName":"צומת אופקים","streets":"2414 / סיירת שקד","Authority":"נתיבי ישראל","domain":2,"new":null},
"geometry":{"type":"Point","coordinates":[34.605395,31.318059]}}
,
{"type":"Feature",
"id":13,"properties":{"mahoz":6,"semel":5542,"city":"מרחבים","nrashut":2,"TzName":"כניסה לאופקים","streets":"241 / הרצל (2335)","Authority":"נתיבי ישראל","domain":2,"new":null},
"geometry":{"type":"Point","coordinates":[34.619544,31.322695]}}
,
{"type":"Feature",
"id":14,"properties":{"mahoz":6,"semel":5541,"city":"בני שמעון","nrashut":1,"TzName":"כניסה למחנה שדה","streets":"25","Authority":"נתיבי ישראל","domain":2,"new":1},
"geometry":{"type":"Point","coordinates":[34.71318,31.296763]}}
,
{"type":"Feature",
"id":15,"properties":{"mahoz":6,"semel":5542,"city":"מרחבים","nrashut":3,"TzName":"כניסה לבטחה","streets":"2416","Authority":"נתיבי ישראל","domain":2,"new":null},
"geometry":{"type":"Point","coordinates":[34.634739,31.32916]}}
,
{"type":"Feature",
"id":16,"properties":{"mahoz":6,"semel":5542,"city":"מרחבים","nrashut":4,"TzName":"כניסה ראשית לגיל","streets":"241","Authority":"נתיבי ישראל","domain":2,"new":null},
"geometry":{"type":"Point","coordinates":[34.648952,31.335507]}}
,
{"type":"Feature",
"id":17,"properties":{"mahoz":6,"semel":5542,"city":"מרחבים","nrashut":5,"TzName":"כניסה למרחבים - מ","streets":"241","Authority":"נתיבי ישראל","domain":2,"new":null},
"geometry":{"type":"Point","coordinates":[34.652493,31.336955]}}
,
{"type":"Feature",
"id":18,"properties":{"mahoz":6,"semel":5541,"city":"בני שמעון","nrashut":2,"TzName":"צומת גילת","streets":"241 / 25","Authority":"נתיבי ישראל","domain":2,"new":null},
"geometry":{"type":"Point","coordinates":[34.653889,31.337587]}}
,
{"type":"Feature",
"id":19,"properties":{"mahoz":6,"semel":246,"city":"נתיבות","nrashut":2,"TzName":"צומת הגדי","streets":"25 / 293","Authority":"נתיבי ישראל","domain":2,"new":null},
"geometry":{"type":"Point","coordinates":[34.60753,31.415635]}}
,
{"type":"Feature",
"id":20,"properties":{"mahoz":6,"semel":246,"city":"נתיבות","nrashut":3,"TzName":"צומת שרשרת","streets":"2444 / 25","Authority":"נתיבי ישראל","domain":2,"new":null},
"geometry":{"type":"Point","coordinates":[34.606792,31.41683]}}
,
{"type":"Feature",
"id":21,"properties":{"mahoz":6,"semel":5541,"city":"בני שמעון","nrashut":3,"TzName":"כניסה לתפרח","streets":"2546","Authority":"נתיבי ישראל","domain":2,"new":null},
"geometry":{"type":"Point","coordinates":[34.67497,31.332018]}}
,
{"type":"Feature",
"id":22,"properties":{"mahoz":6,"semel":5541,"city":"בני שמעון","nrashut":4,"TzName":"צומת הנשיא","streets":"25 / 264","Authority":"נתיבי ישראל","domain":2,"new":null},
"geometry":{"type":"Point","coordinates":[34.698861,31.330584]}}
,
{"type":"Feature",
"id":23,"properties":{"mahoz":6,"semel":5541,"city":"בני שמעון","nrashut":5,"TzName":"צומת אשל הנשיא","streets":"25 / 310","Authority":"נתיבי ישראל","domain":2,"new":null},
"geometry":{"type":"Point","coordinates":[34.70001,31.329614]}}
,
{"type":"Feature",
"id":24,"properties":{"mahoz":6,"semel":9000,"city":"באר שבע","nrashut":1,"TzName":"כניסה לקאונטרי ק","streets":"אילן רמון / אצ''ל / דוד טוביהו (25)","Authority":null,"domain":1,"new":null},
"geometry":{"type":"Point","coordinates":[34.75883,31.256933]}}
,
{"type":"Feature",
"id":25,"properties":{"mahoz":6,"semel":9000,"city":"באר שבע","nrashut":2,"TzName":null,"streets":"דוד טוביהו (25) / לימונית","Authority":null,"domain":1,"new":null},
"geometry":{"type":"Point","coordinates":[34.755747,31.259804]}}
,
{"type":"Feature",
"id":26,"properties":{"mahoz":6,"semel":9000,"city":"באר שבע","nrashut":3,"TzName":null,"streets":"דוד טוביהו (25) / שאול המלך / שומרון","Authority":null,"domain":1,"new":null},
"geometry":{"type":"Point","coordinates":[34.765972,31.253138]}}
,
{"type":"Feature",
"id":27,"properties":{"mahoz":6,"semel":9000,"city":"באר שבע","nrashut":4,"TzName":null,"streets":"אברבנאל / גולדה מאיר / שאול המלך","Authority":null,"domain":1,"new":null},
"geometry":{"type":"Point","coordinates":[34.766811,31.25513]}}
,
{"type":"Feature",
"id":28,"properties":{"mahoz":6,"semel":9000,"city":"באר שבע","nrashut":5,"TzName":null,"streets":"ג'ו יוסף אלון (2357) / הפלמ''ח / תבורי","Authority":null,"domain":1,"new":null},
"geometry":{"type":"Point","coordinates":[34.781587,31.244219]}}
,
{"type":"Feature",
"id":29,"properties":{"mahoz":6,"semel":9000,"city":"באר שבע","nrashut":6,"TzName":null,"streets":"דוד טוביהו (25) / יגאל ידין / מצדה","Authority":null,"domain":1,"new":null},
"geometry":{"type":"Point","coordinates":[34.770283,31.252099]}}
,
{"type":"Feature",
"id":30,"properties":{"mahoz":6,"semel":9000,"city":"באר שבע","nrashut":7,"TzName":null,"streets":"דוד טוביהו (25)","Authority":null,"domain":1,"new":null},
"geometry":{"type":"Point","coordinates":[34.773883,31.250587]}}
,
{"type":"Feature",
"id":31,"properties":{"mahoz":6,"semel":9000,"city":"באר שבע","nrashut":8,"TzName":null,"streets":"בית אל / דוד טוביהו (25)","Authority":null,"domain":1,"new":null},
"geometry":{"type":"Point","coordinates":[34.77517,31.249728]}}
,
{"type":"Feature",
"id":32,"properties":{"mahoz":6,"semel":9000,"city":"באר שבע","nrashut":9,"TzName":null,"streets":"אלפסי / גולדה מאיר / שאול המלך","Authority":null,"domain":1,"new":null},
"geometry":{"type":"Point","coordinates":[34.770915,31.259639]}}
,
{"type":"Feature",
"id":33,"properties":{"mahoz":6,"semel":9000,"city":"באר שבע","nrashut":10,"TzName":null,"streets":"אברבנאל / הצבי / מצדה","Authority":null,"domain":1,"new":null},
"geometry":{"type":"Point","coordinates":[34.771692,31.25383]}}
,
{"type":"Feature",
"id":34,"properties":{"mahoz":6,"semel":9000,"city":"באר שבע","nrashut":11,"TzName":null,"streets":"אבא אחימאיר / שאול המלך","Authority":null,"domain":1,"new":null},
"geometry":{"type":"Point","coordinates":[34.772828,31.260921]}}
,
{"type":"Feature",
"id":35,"properties":{"mahoz":6,"semel":9000,"city":"באר שבע","nrashut":12,"TzName":null,"streets":"אלפסי / יעלים / מצדה","Authority":null,"domain":1,"new":null},
"geometry":{"type":"Point","coordinates":[34.774296,31.257003]}}
,
{"type":"Feature",
"id":36,"properties":{"mahoz":6,"semel":9000,"city":"באר שבע","nrashut":13,"TzName":null,"streets":"דוד טוביהו (25)","Authority":null,"domain":1,"new":null},
"geometry":{"type":"Point","coordinates":[34.779083,31.246985]}}
,
{"type":"Feature",
"id":37,"properties":{"mahoz":6,"semel":9000,"city":"באר שבע","nrashut":14,"TzName":null,"streets":"ג'ו יוסף אלון (2357) / העצמאות / ירושלים","Authority":null,"domain":1,"new":null},
"geometry":{"type":"Point","coordinates":[34.78237,31.244878]}}
,
{"type":"Feature",
"id":38,"properties":{"mahoz":6,"semel":9000,"city":"באר שבע","nrashut":15,"TzName":"צומת חצרים","streets":"ג'ו יוסף אלון (2357) / דוד טוביהו (25) / המשחררים","Authority":null,"domain":1,"new":null},
"geometry":{"type":"Point","coordinates":[34.782927,31.246382]}}
,
{"type":"Feature",
"id":39,"properties":{"mahoz":6,"semel":9000,"city":"באר שבע","nrashut":16,"TzName":null,"streets":"המשחררים / יעלים / מוריה","Authority":null,"domain":1,"new":null},
"geometry":{"type":"Point","coordinates":[34.78346,31.247748]}}
,
{"type":"Feature",
"id":40,"properties":{"mahoz":6,"semel":9000,"city":"באר שבע","nrashut":17,"TzName":null,"streets":"אבא אחימאיר / מצדה / שמשון","Authority":null,"domain":1,"new":null},
"geometry":{"type":"Point","coordinates":[34.775877,31.258463]}}
,
{"type":"Feature",
"id":41,"properties":{"mahoz":6,"semel":9000,"city":"באר שבע","nrashut":18,"TzName":null,"streets":"מבצע יואב / מצדה","Authority":null,"domain":1,"new":null},
"geometry":{"type":"Point","coordinates":[34.780985,31.258365]}}
,
{"type":"Feature",
"id":42,"properties":{"mahoz":6,"semel":9000,"city":"באר שבע","nrashut":19,"TzName":null,"streets":"הפלמ''ח / חטיבת הנגב","Authority":null,"domain":1,"new":null},
"geometry":{"type":"Point","coordinates":[34.786121,31.241005]}}
,
{"type":"Feature",
"id":43,"properties":{"mahoz":6,"semel":9000,"city":"באר שבע","nrashut":20,"TzName":null,"streets":"אסף שמחוני / העצמאות / חטיבת הנגב","Authority":null,"domain":1,"new":null},
"geometry":{"type":"Point","coordinates":[34.787087,31.242037]}}
,
{"type":"Feature",
"id":44,"properties":{"mahoz":6,"semel":9000,"city":"באר שבע","nrashut":21,"TzName":null,"streets":"אסף שמחוני / רמב''ם","Authority":null,"domain":1,"new":null},
"geometry":{"type":"Point","coordinates":[34.789003,31.244138]}}
,
{"type":"Feature",
"id":45,"properties":{"mahoz":6,"semel":9000,"city":"באר שבע","nrashut":22,"TzName":null,"streets":"ההסתדרות / רמב''ם","Authority":null,"domain":1,"new":null},
"geometry":{"type":"Point","coordinates":[34.791621,31.242479]}}
,
{"type":"Feature",
"id":46,"properties":{"mahoz":6,"semel":9000,"city":"באר שבע","nrashut":23,"TzName":null,"streets":"הרצל / רמב''ם","Authority":null,"domain":1,"new":null},
"geometry":{"type":"Point","coordinates":[34.79102,31.242872]}}
,
{"type":"Feature",
"id":47,"properties":{"mahoz":6,"semel":9000,"city":"באר שבע","nrashut":24,"TzName":null,"streets":"הע''ל / חברון / נפתלי הרץ אימבר / קק''ל","Authority":null,"domain":1,"new":null},
"geometry":{"type":"Point","coordinates":[34.792569,31.237321]}}
,
{"type":"Feature",
"id":48,"properties":{"mahoz":6,"semel":9000,"city":"באר שבע","nrashut":25,"TzName":null,"streets":"חברון / רמב''ם","Authority":null,"domain":1,"new":null},
"geometry":{"type":"Point","coordinates":[34.795329,31.238393]}}
,
{"type":"Feature",
"id":49,"properties":{"mahoz":6,"semel":9000,"city":"באר שבע","nrashut":26,"TzName":null,"streets":"החלוץ / רמב''ם","Authority":null,"domain":1,"new":null},
"geometry":{"type":"Point","coordinates":[34.792229,31.242041]}}
,
{"type":"Feature",
"id":50,"properties":{"mahoz":6,"semel":9000,"city":"באר שבע","nrashut":27,"TzName":null,"streets":"טרומפלדור יוסף / רמב''ם","Authority":null,"domain":1,"new":null},
"geometry":{"type":"Point","coordinates":[34.793441,31.241113]}}
,
{"type":"Feature",
"id":51,"properties":{"mahoz":6,"semel":9000,"city":"באר שבע","nrashut":28,"TzName":"צומת אלי כהן - בא","streets":"דוד חכם (25,406) / דוד טוביהו (25) / החלוץ / הרצל / יצחק רגר","Authority":null,"domain":1,"new":null},
"geometry":{"type":"Point","coordinates":[34.793487,31.243802]}}
,
{"type":"Feature",
"id":52,"properties":{"mahoz":6,"semel":9000,"city":"באר שבע","nrashut":29,"TzName":null,"streets":"דוד חכם (25,406)","Authority":null,"domain":1,"new":null},
"geometry":{"type":"Point","coordinates":[34.794864,31.242748]}}
,
{"type":"Feature",
"id":53,"properties":{"mahoz":6,"semel":9000,"city":"באר שבע","nrashut":30,"TzName":"צומת שוק באר שבע","streets":"דוד חכם (25,406) / חברון (60)","Authority":null,"domain":1,"new":null},
"geometry":{"type":"Point","coordinates":[34.797811,31.239235]}}
,
{"type":"Feature",
"id":54,"properties":{"mahoz":6,"semel":9000,"city":"באר שבע","nrashut":31,"TzName":null,"streets":"בנימין בן אסא / דוד חכם (25,406) / המלאכה","Authority":null,"domain":1,"new":null},
"geometry":{"type":"Point","coordinates":[34.799188,31.236597]}}
,
{"type":"Feature",
"id":55,"properties":{"mahoz":6,"semel":9000,"city":"באר שבע","nrashut":32,"TzName":null,"streets":"בית אשל / דוד חכם (25,406) / יהושע חנקין","Authority":null,"domain":1,"new":null},
"geometry":{"type":"Point","coordinates":[34.796808,31.2411]}}
,
{"type":"Feature",
"id":56,"properties":{"mahoz":6,"semel":9000,"city":"באר שבע","nrashut":33,"TzName":null,"streets":"יצחק בן צבי / שמריהו לוין","Authority":null,"domain":1,"new":null},
"geometry":{"type":"Point","coordinates":[34.796607,31.244081]}}
,
{"type":"Feature",
"id":57,"properties":{"mahoz":6,"semel":9000,"city":"באר שבע","nrashut":34,"TzName":null,"streets":"דוד טוביהו (25) / חיים נחמן ביאליק / עלי דיוויס","Authority":null,"domain":1,"new":null},
"geometry":{"type":"Point","coordinates":[34.786505,31.245642]}}
,
{"type":"Feature",
"id":58,"properties":{"mahoz":6,"semel":9000,"city":"באר שבע","nrashut":35,"TzName":null,"streets":"המשחררים / מרבד הקסמים","Authority":null,"domain":1,"new":null},
"geometry":{"type":"Point","coordinates":[34.784437,31.250304]}}
,
{"type":"Feature",
"id":59,"properties":{"mahoz":6,"semel":9000,"city":"באר שבע","nrashut":36,"TzName":null,"streets":"המשחררים / יהודה הלוי / שמשון","Authority":null,"domain":1,"new":null},
"geometry":{"type":"Point","coordinates":[34.786786,31.252054]}}
,
{"type":"Feature",
"id":60,"properties":{"mahoz":6,"semel":9000,"city":"באר שבע","nrashut":37,"TzName":null,"streets":"אסף שמחוני / דוד טוביהו (25) / סוקולוב","Authority":null,"domain":1,"new":null},
"geometry":{"type":"Point","coordinates":[34.789242,31.245042]}}
,
{"type":"Feature",
"id":61,"properties":{"mahoz":6,"semel":9000,"city":"באר שבע","nrashut":38,"TzName":null,"streets":"המשחררים / חיים נחמן ביאליק","Authority":null,"domain":1,"new":null},
"geometry":{"type":"Point","coordinates":[34.791251,31.251756]}}
,
{"type":"Feature",
"id":62,"properties":{"mahoz":6,"semel":9000,"city":"באר שבע","nrashut":39,"TzName":null,"streets":"יהודה הלוי / מצדה","Authority":null,"domain":1,"new":null},
"geometry":{"type":"Point","coordinates":[34.787698,31.259029]}}
,
{"type":"Feature",
"id":63,"properties":{"mahoz":6,"semel":9000,"city":"באר שבע","nrashut":40,"TzName":null,"streets":"יצחק בן צבי / יצחק רגר (406)","Authority":null,"domain":1,"new":null},
"geometry":{"type":"Point","coordinates":[34.795335,31.244808]}}
,
{"type":"Feature",
"id":64,"properties":{"mahoz":6,"semel":9000,"city":"באר שבע","nrashut":41,"TzName":null,"streets":"המשחררים / שמעוני","Authority":null,"domain":1,"new":null},
"geometry":{"type":"Point","coordinates":[34.795535,31.251423]}}
,
{"type":"Feature",
"id":65,"properties":{"mahoz":6,"semel":9000,"city":"באר שבע","nrashut":42,"TzName":null,"streets":"דוד וולפסון / וייצמן / יצחק רגר (406)","Authority":null,"domain":1,"new":null},
"geometry":{"type":"Point","coordinates":[34.796856,31.246328]}}
,
{"type":"Feature",
"id":66,"properties":{"mahoz":6,"semel":9000,"city":"באר שבע","nrashut":43,"TzName":null,"streets":"הנרייטה סאלד / יצחק רגר (406)","Authority":null,"domain":1,"new":null},
"geometry":{"type":"Point","coordinates":[34.797435,31.247201]}}
,
{"type":"Feature",
"id":67,"properties":{"mahoz":6,"semel":9000,"city":"באר שבע","nrashut":44,"TzName":null,"streets":"המשחררים / יצחק רגר (406) / שז''ר","Authority":null,"domain":1,"new":null},
"geometry":{"type":"Point","coordinates":[34.798383,31.250792]}}
,
{"type":"Feature",
"id":68,"properties":{"mahoz":6,"semel":9000,"city":"באר שבע","nrashut":45,"TzName":null,"streets":"יצחק רגר (406) / ליאונרד ברנשטיין","Authority":null,"domain":1,"new":null},
"geometry":{"type":"Point","coordinates":[34.798888,31.25261]}}
,
{"type":"Feature",
"id":69,"properties":{"mahoz":6,"semel":9000,"city":"באר שבע","nrashut":46,"TzName":null,"streets":"חיים נחמן ביאליק / טשרניחובסקי / שמעוני","Authority":null,"domain":1,"new":null},
"geometry":{"type":"Point","coordinates":[34.795389,31.255569]}}
,
{"type":"Feature",
"id":70,"properties":{"mahoz":6,"semel":9000,"city":"באר שבע","nrashut":47,"TzName":null,"streets":"טשרניחובסקי / יצחק אבינו / מצדה","Authority":null,"domain":1,"new":null},
"geometry":{"type":"Point","coordinates":[34.79503,31.258378]}}
,
{"type":"Feature",
"id":71,"properties":{"mahoz":6,"semel":9000,"city":"באר שבע","nrashut":48,"TzName":null,"streets":"חיים נחמן ביאליק / יעקב כהן / יצחק למדן","Authority":null,"domain":1,"new":null},
"geometry":{"type":"Point","coordinates":[34.797241,31.255414]}}
,
{"type":"Feature",
"id":72,"properties":{"mahoz":6,"semel":9000,"city":"באר שבע","nrashut":49,"TzName":null,"streets":"וינגייט / חיים נחמן ביאליק / יצחק רגר (406)","Authority":null,"domain":1,"new":null},
"geometry":{"type":"Point","coordinates":[34.798713,31.255495]}}
,
{"type":"Feature",
"id":73,"properties":{"mahoz":6,"semel":9000,"city":"באר שבע","nrashut":50,"TzName":null,"streets":"יצחק למדן / מצדה / ראובן רובין","Authority":null,"domain":1,"new":null},
"geometry":{"type":"Point","coordinates":[34.797122,31.258455]}}
,
{"type":"Feature",
"id":74,"properties":{"mahoz":6,"semel":9000,"city":"באר שבע","nrashut":51,"TzName":null,"streets":"יצחק רגר (406) / מצדה","Authority":null,"domain":1,"new":null},
"geometry":{"type":"Point","coordinates":[34.798231,31.258483]}}
,
{"type":"Feature",
"id":75,"properties":{"mahoz":6,"semel":9000,"city":"באר שבע","nrashut":52,"TzName":null,"streets":"דוד בן גוריון / יצחק רגר (406)","Authority":null,"domain":1,"new":null},
"geometry":{"type":"Point","coordinates":[34.798188,31.26102]}}
,
{"type":"Feature",
"id":76,"properties":{"mahoz":6,"semel":9000,"city":"באר שבע","nrashut":53,"TzName":"כניסה למזבלה","streets":"דוד טוביהו (25)","Authority":null,"domain":1,"new":null},
"geometry":{"type":"Point","coordinates":[34.743834,31.26597]}}
,
{"type":"Feature",
"id":77,"properties":{"mahoz":6,"semel":9000,"city":"באר שבע","nrashut":54,"TzName":null,"streets":"אצ''ל / דיקלה / השופטים","Authority":null,"domain":1,"new":null},
"geometry":{"type":"Point","coordinates":[34.763007,31.261204]}}
,
{"type":"Feature",
"id":78,"properties":{"mahoz":6,"semel":9000,"city":"באר שבע","nrashut":55,"TzName":null,"streets":"אבא אחימאיר / אצ''ל / ששת הימים","Authority":null,"domain":1,"new":null},
"geometry":{"type":"Point","coordinates":[34.768564,31.266555]}}
,
{"type":"Feature",
"id":79,"properties":{"mahoz":6,"semel":9000,"city":"באר שבע","nrashut":56,"TzName":null,"streets":"אצ''ל / דוד אלעזר / שמואל רודנסקי","Authority":null,"domain":1,"new":null},
"geometry":{"type":"Point","coordinates":[34.773167,31.269307]}}
,
{"type":"Feature",
"id":80,"properties":{"mahoz":6,"semel":9000,"city":"באר שבע","nrashut":57,"TzName":null,"streets":"מבצע יואב / שאול המלך","Authority":null,"domain":1,"new":null},
"geometry":{"type":"Point","coordinates":[34.779508,31.263166]}}
,
{"type":"Feature",
"id":81,"properties":{"mahoz":6,"semel":9000,"city":"באר שבע","nrashut":58,"TzName":null,"streets":"יהודה הלוי / יעקב דורי / סנהדרין","Authority":null,"domain":1,"new":null},
"geometry":{"type":"Point","coordinates":[34.78532,31.268016]}}
,
{"type":"Feature",
"id":82,"properties":{"mahoz":6,"semel":9000,"city":"באר שבע","nrashut":59,"TzName":null,"streets":"דוד המלך / יהודה הלוי / שאול המלך","Authority":null,"domain":1,"new":null},
"geometry":{"type":"Point","coordinates":[34.789392,31.264122]}}
,
{"type":"Feature",
"id":83,"properties":{"mahoz":6,"semel":9000,"city":"באר שבע","nrashut":60,"TzName":null,"streets":"אברהם אבינו","Authority":null,"domain":1,"new":null},
"geometry":{"type":"Point","coordinates":[34.79368,31.264163]}}
,
{"type":"Feature",
"id":84,"properties":{"mahoz":6,"semel":9000,"city":"באר שבע","nrashut":61,"TzName":null,"streets":"יעקב אבינו / יצחק רגר (406)","Authority":null,"domain":1,"new":null},
"geometry":{"type":"Point","coordinates":[34.798175,31.262053]}}
,
{"type":"Feature",
"id":85,"properties":{"mahoz":6,"semel":9000,"city":"באר שבע","nrashut":62,"TzName":null,"streets":"יצחק רגר (406) / פרופסור חיים חנני","Authority":null,"domain":1,"new":null},
"geometry":{"type":"Point","coordinates":[34.798164,31.263676]}}
,
{"type":"Feature",
"id":86,"properties":{"mahoz":6,"semel":9000,"city":"באר שבע","nrashut":63,"TzName":null,"streets":"הרב סוסו הכהן / יצחק רגר (406) / רינגלבלום","Authority":null,"domain":1,"new":null},
"geometry":{"type":"Point","coordinates":[34.798101,31.266109]}}
,
{"type":"Feature",
"id":87,"properties":{"mahoz":6,"semel":9000,"city":"באר שבע","nrashut":64,"TzName":"צומת כובשים","streets":"אביטל אביגדור / הצדיק מירושלים / יצחק רגר (406)","Authority":null,"domain":1,"new":null},
"geometry":{"type":"Point","coordinates":[34.796175,31.275151]}}
,
{"type":"Feature",
"id":88,"properties":{"mahoz":6,"semel":9000,"city":"באר שבע","nrashut":65,"TzName":null,"streets":"אברהם אבינו / יצחק רגר (406) / רינגלבלום","Authority":null,"domain":1,"new":null},
"geometry":{"type":"Point","coordinates":[34.79805,31.269551]}}
,
{"type":"Feature",
"id":89,"properties":{"mahoz":6,"semel":9000,"city":"באר שבע","nrashut":66,"TzName":"כניסה לשדרות צהל","streets":"יצחק רגר (406) / צה''ל","Authority":"נתיבי ישראל","domain":2,"new":null},
"geometry":{"type":"Point","coordinates":[34.791229,31.287433]}}
,
{"type":"Feature",
"id":90,"properties":{"mahoz":6,"semel":9000,"city":"באר שבע","nrashut":67,"TzName":"צומת גורל","streets":"406","Authority":"נתיבי ישראל","domain":2,"new":null},
"geometry":{"type":"Point","coordinates":[34.788265,31.311022]}}
,
{"type":"Feature",
"id":91,"properties":{"mahoz":6,"semel":9000,"city":"באר שבע","nrashut":68,"TzName":"כניסה לאוהלי קיד","streets":"406","Authority":"נתיבי ישראל","domain":2,"new":null},
"geometry":{"type":"Point","coordinates":[34.801999,31.20904]}}
,
{"type":"Feature",
"id":92,"properties":{"mahoz":6,"semel":9000,"city":"באר שבע","nrashut":69,"TzName":null,"streets":"אילת (406) / הפועלים","Authority":null,"domain":1,"new":null},
"geometry":{"type":"Point","coordinates":[34.803671,31.226524]}}
,
{"type":"Feature",
"id":93,"properties":{"mahoz":6,"semel":9000,"city":"באר שבע","nrashut":70,"TzName":null,"streets":"אילת (406) / הבונים / תוצרת הארץ","Authority":null,"domain":1,"new":null},
"geometry":{"type":"Point","coordinates":[34.804718,31.220387]}}
,
{"type":"Feature",
"id":94,"properties":{"mahoz":6,"semel":9000,"city":"באר שבע","nrashut":71,"TzName":null,"streets":"ירדן","Authority":null,"domain":1,"new":null},
"geometry":{"type":"Point","coordinates":[34.82137,31.225719]}}
,
{"type":"Feature",
"id":95,"properties":{"mahoz":6,"semel":9000,"city":"באר שבע","nrashut":72,"TzName":null,"streets":"יגאל אלון (25) / ירדן / נחל פרת","Authority":null,"domain":1,"new":null},
"geometry":{"type":"Point","coordinates":[34.821704,31.226754]}}
,
{"type":"Feature",
"id":96,"properties":{"mahoz":6,"semel":9000,"city":"באר שבע","nrashut":73,"TzName":null,"streets":"רמפה 25 / רמפה 40","Authority":"נתיבי ישראל","domain":2,"new":null},
"geometry":{"type":"Point","coordinates":[34.827613,31.225436]}}
,
{"type":"Feature",
"id":97,"properties":{"mahoz":6,"semel":9000,"city":"באר שבע","nrashut":74,"TzName":"מחלף שרה","streets":"רמפה 25 / רמפה 40","Authority":"נתיבי ישראל","domain":2,"new":null},
"geometry":{"type":"Point","coordinates":[34.82927,31.225076]}}
,
{"type":"Feature",
"id":98,"properties":{"mahoz":6,"semel":9000,"city":"באר שבע","nrashut":75,"TzName":"צומת בית אשל","streets":"אילת (406) / אפיקים בנגב / דוד חכם (25,406) / יגאל אלון (25)","Authority":null,"domain":1,"new":null},
"geometry":{"type":"Point","coordinates":[34.802676,31.230373]}}
,
{"type":"Feature",
"id":99,"properties":{"mahoz":6,"semel":9000,"city":"באר שבע","nrashut":76,"TzName":null,"streets":"דוד חכם (25,406) / חיטה","Authority":null,"domain":1,"new":null},
"geometry":{"type":"Point","coordinates":[34.800448,31.235365]}}
,
{"type":"Feature",
"id":100,"properties":{"mahoz":6,"semel":9000,"city":"באר שבע","nrashut":77,"TzName":null,"streets":"חברון (60) / מקס נורדאו / רוטשילד","Authority":null,"domain":1,"new":null},
"geometry":{"type":"Point","coordinates":[34.800938,31.240674]}}
,
{"type":"Feature",
"id":101,"properties":{"mahoz":6,"semel":9000,"city":"באר שבע","nrashut":78,"TzName":null,"streets":"אליהו נאוי (60) / חברון (60) / שז''ר","Authority":null,"domain":1,"new":null},
"geometry":{"type":"Point","coordinates":[34.806114,31.244388]}}
,
{"type":"Feature",
"id":102,"properties":{"mahoz":6,"semel":9000,"city":"באר שבע","nrashut":79,"TzName":null,"streets":"אליהו נאוי (60) / יוסף הבורסקאי","Authority":null,"domain":1,"new":null},
"geometry":{"type":"Point","coordinates":[34.808764,31.244059]}}
,
{"type":"Feature",
"id":103,"properties":{"mahoz":6,"semel":9000,"city":"באר שבע","nrashut":80,"TzName":null,"streets":"לאונרד כהן / רחה פריאר / שז''ר","Authority":null,"domain":1,"new":null},
"geometry":{"type":"Point","coordinates":[34.804094,31.246392]}}
,
{"type":"Feature",
"id":104,"properties":{"mahoz":6,"semel":9000,"city":"באר שבע","nrashut":81,"TzName":null,"streets":"הנרייטה סאלד / שז''ר","Authority":null,"domain":1,"new":null},
"geometry":{"type":"Point","coordinates":[34.803014,31.247803]}}
,
{"type":"Feature",
"id":105,"properties":{"mahoz":6,"semel":9000,"city":"באר שבע","nrashut":82,"TzName":null,"streets":"השלום / מנחם בגין / שז''ר","Authority":null,"domain":1,"new":null},
"geometry":{"type":"Point","coordinates":[34.800682,31.249995]}}
,
{"type":"Feature",
"id":106,"properties":{"mahoz":6,"semel":9000,"city":"באר שבע","nrashut":83,"TzName":null,"streets":"יעקב גרשפלד / רוטשילד / שז''ר","Authority":null,"domain":1,"new":null},
"geometry":{"type":"Point","coordinates":[34.804923,31.244987]}}
,
{"type":"Feature",
"id":107,"properties":{"mahoz":6,"semel":9000,"city":"באר שבע","nrashut":84,"TzName":null,"streets":"דוד בן גוריון","Authority":null,"domain":1,"new":null},
"geometry":{"type":"Point","coordinates":[34.800879,31.260979]}}
,
{"type":"Feature",
"id":108,"properties":{"mahoz":6,"semel":9000,"city":"באר שבע","nrashut":85,"TzName":null,"streets":"אורי צבי גרינברג / ארלוזורוב / דוד בן גוריון","Authority":null,"domain":1,"new":null},
"geometry":{"type":"Point","coordinates":[34.805929,31.260854]}}
,
{"type":"Feature",
"id":109,"properties":{"mahoz":6,"semel":9000,"city":"באר שבע","nrashut":86,"TzName":null,"streets":"אליהו נאוי (60) / חיל הנדסה / יצחק נפחא","Authority":null,"domain":1,"new":null},
"geometry":{"type":"Point","coordinates":[34.811691,31.245054]}}
,
{"type":"Feature",
"id":110,"properties":{"mahoz":6,"semel":9000,"city":"באר שבע","nrashut":87,"TzName":null,"streets":"דוד בן גוריון / יצחק נפחא","Authority":null,"domain":1,"new":null},
"geometry":{"type":"Point","coordinates":[34.815086,31.252539]}}
,
{"type":"Feature",
"id":111,"properties":{"mahoz":6,"semel":9000,"city":"באר שבע","nrashut":88,"TzName":null,"streets":"דוד בן גוריון / השלום / יהושע הצורף","Authority":null,"domain":1,"new":null},
"geometry":{"type":"Point","coordinates":[34.811948,31.257723]}}
,
{"type":"Feature",
"id":112,"properties":{"mahoz":6,"semel":9000,"city":"באר שבע","nrashut":89,"TzName":null,"streets":"דוד בן גוריון / האורגים / יעקב גרשפלד","Authority":null,"domain":1,"new":null},
"geometry":{"type":"Point","coordinates":[34.814426,31.253477]}}
,
{"type":"Feature",
"id":113,"properties":{"mahoz":6,"semel":9000,"city":"באר שבע","nrashut":90,"TzName":"באר שבע - שדרות ב","streets":"אליהו נאוי (60) / דוד בן גוריון","Authority":null,"domain":1,"new":null},
"geometry":{"type":"Point","coordinates":[34.81864,31.249837]}}
,
{"type":"Feature",
"id":114,"properties":{"mahoz":6,"semel":9000,"city":"באר שבע","nrashut":91,"TzName":"באר שבע - אברהם ב","streets":"אברהם בן עמי / אליהו נאוי (60)","Authority":null,"domain":1,"new":null},
"geometry":{"type":"Point","coordinates":[34.81991,31.251189]}}
,
{"type":"Feature",
"id":115,"properties":{"mahoz":6,"semel":9000,"city":"באר שבע","nrashut":92,"TzName":"צומת חטיבת הנגב","streets":"אליהו נאוי (60) / בנ''צ כרמל","Authority":null,"domain":1,"new":null},
"geometry":{"type":"Point","coordinates":[34.826182,31.257303]}}
,
{"type":"Feature",
"id":116,"properties":{"mahoz":6,"semel":9000,"city":"באר שבע","nrashut":93,"TzName":null,"streets":"25","Authority":null,"domain":1,"new":null},
"geometry":{"type":"Point","coordinates":[34.846029,31.221391]}}
,
{"type":"Feature",
"id":117,"properties":{"mahoz":6,"semel":9000,"city":"באר שבע","nrashut":94,"TzName":null,"streets":"25","Authority":null,"domain":1,"new":null},
"geometry":{"type":"Point","coordinates":[34.846196,31.221916]}}
,
{"type":"Feature",
"id":118,"properties":{"mahoz":6,"semel":9000,"city":"באר שבע","nrashut":95,"TzName":null,"streets":"אביטל אביגדור / אורי צבי גרינברג / בנ''צ כרמל","Authority":null,"domain":1,"new":null},
"geometry":{"type":"Point","coordinates":[34.810838,31.271308]}}
,
{"type":"Feature",
"id":119,"properties":{"mahoz":6,"semel":666,"city":"עומר","nrashut":1,"TzName":"צומת תל שבע","streets":"4060 / 60","Authority":"נתיבי ישראל","domain":2,"new":null},
"geometry":{"type":"Point","coordinates":[34.832371,31.261368]}}
,
{"type":"Feature",
"id":120,"properties":{"mahoz":6,"semel":666,"city":"עומר","nrashut":2,"TzName":"כניסה לעומר","streets":"60 / תמר","Authority":"נתיבי ישראל","domain":2,"new":null},
"geometry":{"type":"Point","coordinates":[34.84227,31.26947]}}
,
{"type":"Feature",
"id":121,"properties":{"mahoz":6,"semel":666,"city":"עומר","nrashut":3,"TzName":"כניסה לא תעשייה","streets":"60 / עומרים","Authority":"נתיבי ישראל","domain":2,"new":null},
"geometry":{"type":"Point","coordinates":[34.843277,31.270722]}}
,
{"type":"Feature",
"id":122,"properties":{"mahoz":6,"semel":5541,"city":"בני שמעון","nrashut":6,"TzName":null,"streets":"31,310 / 31,40 / 40","Authority":"נתיבי ישראל","domain":2,"new":1},
"geometry":{"type":"Point","coordinates":[34.794011,31.37165]}}
,
{"type":"Feature",
"id":123,"properties":{"mahoz":6,"semel":5541,"city":"בני שמעון","nrashut":7,"TzName":null,"streets":"31,40 / 40","Authority":"נתיבי ישראל","domain":2,"new":1},
"geometry":{"type":"Point","coordinates":[34.793545,31.373392]}}
,
{"type":"Feature",
"id":124,"properties":{"mahoz":6,"semel":9971,"city":"שטח מדינה אזור הסייג","nrashut":3,"TzName":"צומת ערערה בנגב","streets":"25 / 80","Authority":"נתיבי ישראל","domain":2,"new":null},
"geometry":{"type":"Point","coordinates":[34.983652,31.149426]}}
,
{"type":"Feature",
"id":125,"properties":{"mahoz":6,"semel":2200,"city":"דימונה","nrashut":1,"TzName":"כניסה לקניון דימ","streets":"25 / הרצל / להב","Authority":"נתיבי ישראל","domain":2,"new":null},
"geometry":{"type":"Point","coordinates":[35.019749,31.06199]}}
,
{"type":"Feature",
"id":126,"properties":{"mahoz":6,"semel":2200,"city":"דימונה","nrashut":2,"TzName":"כניסה לדימונה","streets":"25 / אריאל שרון","Authority":"נתיבי ישראל","domain":2,"new":null},
"geometry":{"type":"Point","coordinates":[35.024404,31.05925]}}
,
{"type":"Feature",
"id":127,"properties":{"mahoz":6,"semel":2200,"city":"דימונה","nrashut":3,"TzName":"צומת דימונה","streets":"204 / 25","Authority":"נתיבי ישראל","domain":2,"new":null},
"geometry":{"type":"Point","coordinates":[35.006571,31.068217]}}
,
{"type":"Feature",
"id":128,"properties":{"mahoz":6,"semel":2200,"city":"דימונה","nrashut":4,"TzName":"כניסה לאזור התעש","streets":"25","Authority":"נתיבי ישראל","domain":2,"new":null},
"geometry":{"type":"Point","coordinates":[35.007677,31.067676]}}
,
{"type":"Feature",
"id":129,"properties":{"mahoz":6,"semel":5541,"city":"בני שמעון","nrashut":8,"TzName":"כניסה לנבטים","streets":"2501","Authority":"נתיבי ישראל","domain":2,"new":null},
"geometry":{"type":"Point","coordinates":[34.874124,31.217391]}}
,
{"type":"Feature",
"id":130,"properties":{"mahoz":6,"semel":932,"city":"אבו עמרה","nrashut":1,"TzName":"כניסה לאבו עמרה","streets":"4062 / 60","Authority":"נתיבי ישראל","domain":2,"new":null},
"geometry":{"type":"Point","coordinates":[34.877794,31.288852]}}
,
{"type":"Feature",
"id":131,"properties":{"mahoz":6,"semel":5541,"city":"בני שמעון","nrashut":9,"TzName":"שוקת- מיתר דרומי","streets":"רמפה 31 / רמפה 60","Authority":"נתיבי ישראל","domain":2,"new":null},
"geometry":{"type":"Point","coordinates":[34.901055,31.307239]}}
,
{"type":"Feature",
"id":132,"properties":{"mahoz":6,"semel":5541,"city":"בני שמעון","nrashut":10,"TzName":"שוקת- מיתר צפוני","streets":"רמפה 31 / רמפה 60","Authority":"נתיבי ישראל","domain":2,"new":null},
"geometry":{"type":"Point","coordinates":[34.902051,31.307896]}}
,
{"type":"Feature",
"id":133,"properties":{"mahoz":6,"semel":2560,"city":"ערד","nrashut":1,"TzName":null,"streets":"31,80 / 80","Authority":"נתיבי ישראל","domain":2,"new":null},
"geometry":{"type":"Point","coordinates":[35.124544,31.25401]}}
,
{"type":"Feature",
"id":134,"properties":{"mahoz":6,"semel":2560,"city":"ערד","nrashut":2,"TzName":"צומת תל ערד","streets":"31,80 / 80","Authority":"נתיבי ישראל","domain":2,"new":null},
"geometry":{"type":"Point","coordinates":[35.125972,31.25408]}}
,
{"type":"Feature",
"id":135,"properties":{"mahoz":6,"semel":2560,"city":"ערד","nrashut":3,"TzName":"כניסה לערד רח הק","streets":"באר שבע (31) / הקנאים","Authority":"נתיבי ישראל","domain":2,"new":null},
"geometry":{"type":"Point","coordinates":[35.196111,31.248812]}}
,
{"type":"Feature",
"id":136,"properties":{"mahoz":6,"semel":2560,"city":"ערד","nrashut":4,"TzName":"כניסה לא תעשייה","streets":"באר שבע (31) / שמיר","Authority":"נתיבי ישראל","domain":2,"new":null},
"geometry":{"type":"Point","coordinates":[35.197358,31.248795]}}
,
{"type":"Feature",
"id":137,"properties":{"mahoz":6,"semel":348,"city":"ניר עם","nrashut":1,"TzName":"צומת שער הנגב","streets":"34,232","Authority":"נתיבי ישראל","domain":2,"new":null},
"geometry":{"type":"Point","coordinates":[34.586891,31.507721]}}
,
{"type":"Feature",
"id":138,"properties":{"mahoz":6,"semel":348,"city":"ניר עם","nrashut":2,"TzName":"צומת","streets":"34,232","Authority":"נתיבי ישראל","domain":2,"new":null},
"geometry":{"type":"Point","coordinates":[34.58635,31.508606]}}
,
{"type":"Feature",
"id":139,"properties":{"mahoz":6,"semel":1031,"city":"שדרות","nrashut":1,"TzName":"כניסה לשדרות - מע","streets":"34 / מנחם בגין","Authority":"נתיבי ישראל","domain":2,"new":null},
"geometry":{"type":"Point","coordinates":[34.586275,31.516588]}}
,
{"type":"Feature",
"id":140,"properties":{"mahoz":6,"semel":348,"city":"ניר עם","nrashut":3,"TzName":"כניסה לניר עם","streets":"3345 / 34","Authority":"נתיבי ישראל","domain":2,"new":1},
"geometry":{"type":"Point","coordinates":[34.586019,31.517648]}}
,
{"type":"Feature",
"id":141,"properties":{"mahoz":6,"semel":424,"city":"גבים","nrashut":1,"TzName":"כניסה לק חנוך שע","streets":"232","Authority":"נתיבי ישראל","domain":2,"new":null},
"geometry":{"type":"Point","coordinates":[34.59369,31.510447]}}
,
{"type":"Feature",
"id":142,"properties":{"mahoz":6,"semel":358,"city":"יד מרדכי","nrashut":1,"TzName":"צומת יד מרדכי","streets":"34 / 4","Authority":"נתיבי ישראל","domain":2,"new":null},
"geometry":{"type":"Point","coordinates":[34.563361,31.588472]}}
,
{"type":"Feature",
"id":143,"properties":{"mahoz":6,"semel":5536,"city":"חוף אשקלון","nrashut":1,"TzName":"צומת זיקים","streets":"3411 / 4","Authority":"נתיבי ישראל","domain":2,"new":null},
"geometry":{"type":"Point","coordinates":[34.571627,31.602387]}}
,
{"type":"Feature",
"id":144,"properties":{"mahoz":6,"semel":573,"city":"מבקיעים","nrashut":1,"TzName":"כניסה לקצא\"א","streets":"4","Authority":"נתיבי ישראל","domain":2,"new":null},
"geometry":{"type":"Point","coordinates":[34.585585,31.627568]}}
,
{"type":"Feature",
"id":145,"properties":{"mahoz":6,"semel":7100,"city":"אשקלון","nrashut":1,"TzName":"צומת בת הדר","streets":"3419 / 4","Authority":"נתיבי ישראל","domain":2,"new":null},
"geometry":{"type":"Point","coordinates":[34.593844,31.646695]}}
,
{"type":"Feature",
"id":146,"properties":{"mahoz":6,"semel":5536,"city":"חוף אשקלון","nrashut":2,"TzName":"צומת תלמי יפה","streets":"3412 / 4","Authority":"נתיבי ישראל","domain":2,"new":null},
"geometry":{"type":"Point","coordinates":[34.598721,31.653862]}}
,
{"type":"Feature",
"id":147,"properties":{"mahoz":6,"semel":7100,"city":"אשקלון","nrashut":2,"TzName":null,"streets":"דוד בן גוריון / ההסתדרות / הנשיא","Authority":null,"domain":1,"new":null},
"geometry":{"type":"Point","coordinates":[34.562369,31.663795]}}
,
{"type":"Feature",
"id":148,"properties":{"mahoz":6,"semel":7100,"city":"אשקלון","nrashut":3,"TzName":null,"streets":"ביאליק / דוד בן גוריון / יצחק בן צבי","Authority":null,"domain":1,"new":null},
"geometry":{"type":"Point","coordinates":[34.570306,31.662159]}}
,
{"type":"Feature",
"id":149,"properties":{"mahoz":6,"semel":7100,"city":"אשקלון","nrashut":4,"TzName":null,"streets":"דוד בן גוריון / קיבוץ גלויות","Authority":null,"domain":1,"new":null},
"geometry":{"type":"Point","coordinates":[34.567172,31.663258]}}
,
{"type":"Feature",
"id":150,"properties":{"mahoz":6,"semel":7100,"city":"אשקלון","nrashut":5,"TzName":null,"streets":"אלי כהן / יצחק בן צבי","Authority":null,"domain":1,"new":null},
"geometry":{"type":"Point","coordinates":[34.570763,31.667932]}}
,
{"type":"Feature",
"id":151,"properties":{"mahoz":6,"semel":7100,"city":"אשקלון","nrashut":6,"TzName":null,"streets":"דוד בן גוריון / יצחק רבין","Authority":null,"domain":1,"new":null},
"geometry":{"type":"Point","coordinates":[34.573422,31.661403]}}
,
{"type":"Feature",
"id":152,"properties":{"mahoz":6,"semel":7100,"city":"אשקלון","nrashut":7,"TzName":null,"streets":"דוד בן גוריון / יהדות בריטניה / שיבת ציון","Authority":null,"domain":1,"new":null},
"geometry":{"type":"Point","coordinates":[34.577083,31.661256]}}
,
{"type":"Feature",
"id":153,"properties":{"mahoz":6,"semel":7100,"city":"אשקלון","nrashut":8,"TzName":null,"streets":"אלי כהן / יצחק רבין","Authority":null,"domain":1,"new":null},
"geometry":{"type":"Point","coordinates":[34.574107,31.668766]}}
,
{"type":"Feature",
"id":154,"properties":{"mahoz":6,"semel":7100,"city":"אשקלון","nrashut":9,"TzName":null,"streets":"דוד בן גוריון / דוד רמז","Authority":null,"domain":1,"new":null},
"geometry":{"type":"Point","coordinates":[34.583682,31.661559]}}
,
{"type":"Feature",
"id":155,"properties":{"mahoz":6,"semel":7100,"city":"אשקלון","nrashut":10,"TzName":null,"streets":"יצחק רבין / צפניה","Authority":null,"domain":1,"new":1},
"geometry":{"type":"Point","coordinates":[34.574321,31.671482]}}
,
{"type":"Feature",
"id":156,"properties":{"mahoz":6,"semel":7100,"city":"אשקלון","nrashut":11,"TzName":null,"streets":"ירושלים","Authority":null,"domain":1,"new":null},
"geometry":{"type":"Point","coordinates":[34.576403,31.677008]}}
,
{"type":"Feature",
"id":157,"properties":{"mahoz":6,"semel":7100,"city":"אשקלון","nrashut":12,"TzName":null,"streets":"יצחק רבין / ירושלים / מנחם בגין","Authority":null,"domain":1,"new":null},
"geometry":{"type":"Point","coordinates":[34.577423,31.675949]}}
,
{"type":"Feature",
"id":158,"properties":{"mahoz":6,"semel":7100,"city":"אשקלון","nrashut":13,"TzName":null,"streets":"אייר / מנחם בגין / עמיעד","Authority":null,"domain":1,"new":null},
"geometry":{"type":"Point","coordinates":[34.581913,31.673801]}}
,
{"type":"Feature",
"id":159,"properties":{"mahoz":6,"semel":7100,"city":"אשקלון","nrashut":14,"TzName":null,"streets":"אנה פרנק / אקסודוס / מנחם בגין","Authority":null,"domain":1,"new":null},
"geometry":{"type":"Point","coordinates":[34.584919,31.673559]}}
,
{"type":"Feature",
"id":160,"properties":{"mahoz":6,"semel":7100,"city":"אשקלון","nrashut":15,"TzName":null,"streets":"דוד בן גוריון / התחייה / נח''ל","Authority":null,"domain":1,"new":null},
"geometry":{"type":"Point","coordinates":[34.588882,31.660537]}}
,
{"type":"Feature",
"id":161,"properties":{"mahoz":6,"semel":7100,"city":"אשקלון","nrashut":16,"TzName":null,"streets":"דוד בן גוריון / התעשייה","Authority":null,"domain":1,"new":null},
"geometry":{"type":"Point","coordinates":[34.594154,31.659489]}}
,
{"type":"Feature",
"id":162,"properties":{"mahoz":6,"semel":7100,"city":"אשקלון","nrashut":17,"TzName":null,"streets":"דוד בן גוריון / עזרא יסודי","Authority":null,"domain":1,"new":null},
"geometry":{"type":"Point","coordinates":[34.601114,31.659485]}}
,
{"type":"Feature",
"id":163,"properties":{"mahoz":6,"semel":7100,"city":"אשקלון","nrashut":18,"TzName":"צומת אשקלון דרך","streets":"4 / דוד בן גוריון","Authority":"נתיבי ישראל","domain":2,"new":null},
"geometry":{"type":"Point","coordinates":[34.602713,31.658739]}}
,
{"type":"Feature",
"id":164,"properties":{"mahoz":6,"semel":7100,"city":"אשקלון","nrashut":19,"TzName":null,"streets":"אבן עזרא / מנחם בגין","Authority":null,"domain":1,"new":null},
"geometry":{"type":"Point","coordinates":[34.589233,31.674479]}}
,
{"type":"Feature",
"id":165,"properties":{"mahoz":6,"semel":7100,"city":"אשקלון","nrashut":20,"TzName":null,"streets":"אריאל שרון / יצחק שמיר","Authority":null,"domain":1,"new":null},
"geometry":{"type":"Point","coordinates":[34.589593,31.696277]}}
,
{"type":"Feature",
"id":166,"properties":{"mahoz":6,"semel":7100,"city":"אשקלון","nrashut":21,"TzName":null,"streets":"יצחק שמיר","Authority":null,"domain":1,"new":null},
"geometry":{"type":"Point","coordinates":[34.596563,31.700445]}}
,
{"type":"Feature",
"id":167,"properties":{"mahoz":6,"semel":1031,"city":"שדרות","nrashut":2,"TzName":"כניסה לשדרות - צפ","streets":"232 / יצחק שמיר / קהילת מילנו","Authority":"נתיבי ישראל","domain":2,"new":null},
"geometry":{"type":"Point","coordinates":[34.604869,31.523952]}}
,
{"type":"Feature",
"id":168,"properties":{"mahoz":6,"semel":293,"city":"שדה יואב","nrashut":1,"TzName":"צומת גבעתי מערבי","streets":"35,232","Authority":"נתיבי ישראל","domain":2,"new":null},
"geometry":{"type":"Point","coordinates":[34.66224,31.65371]}}
,
{"type":"Feature",
"id":169,"properties":{"mahoz":6,"semel":5535,"city":"יואב","nrashut":1,"TzName":"צומת גבעתי מזרחי","streets":"35,232","Authority":"נתיבי ישראל","domain":2,"new":null},
"geometry":{"type":"Point","coordinates":[34.663738,31.653166]}}
,
{"type":"Feature",
"id":170,"properties":{"mahoz":6,"semel":7100,"city":"אשקלון","nrashut":22,"TzName":"צומת ברכיה","streets":"35 / 4","Authority":"נתיבי ישראל","domain":2,"new":null},
"geometry":{"type":"Point","coordinates":[34.60664,31.665829]}}
,
{"type":"Feature",
"id":171,"properties":{"mahoz":6,"semel":7100,"city":"אשקלון","nrashut":23,"TzName":"צומת אבא הלל סיל","streets":"3 / 4","Authority":"נתיבי ישראל","domain":2,"new":null},
"geometry":{"type":"Point","coordinates":[34.609631,31.676115]}}
,
{"type":"Feature",
"id":172,"properties":{"mahoz":6,"semel":7100,"city":"אשקלון","nrashut":24,"TzName":"כניסה לאשקלון - צ","streets":"4 / מנחם בגין","Authority":"נתיבי ישראל","domain":2,"new":null},
"geometry":{"type":"Point","coordinates":[34.609855,31.680464]}}
,
{"type":"Feature",
"id":173,"properties":{"mahoz":6,"semel":5536,"city":"חוף אשקלון","nrashut":3,"TzName":"כניסה לכפר סילבר","streets":"3502","Authority":"נתיבי ישראל","domain":2,"new":null},
"geometry":{"type":"Point","coordinates":[34.613132,31.676752]}}
,
{"type":"Feature",
"id":174,"properties":{"mahoz":6,"semel":746,"city":"ברכיה","nrashut":1,"TzName":"צומת משען","streets":"3500","Authority":"נתיבי ישראל","domain":2,"new":null},
"geometry":{"type":"Point","coordinates":[34.625029,31.663962]}}
,
{"type":"Feature",
"id":175,"properties":{"mahoz":6,"semel":726,"city":"הודיה","nrashut":1,"TzName":"צומת ניר ישראל","streets":"3500","Authority":"נתיבי ישראל","domain":2,"new":null},
"geometry":{"type":"Point","coordinates":[34.634912,31.679124]}}
,
{"type":"Feature",
"id":176,"properties":{"mahoz":6,"semel":5536,"city":"חוף אשקלון","nrashut":4,"TzName":null,"streets":"3633","Authority":null,"domain":1,"new":1},
"geometry":{"type":"Point","coordinates":[34.618323,31.705338]}}
,
{"type":"Feature",
"id":177,"properties":{"mahoz":6,"semel":5536,"city":"חוף אשקלון","nrashut":5,"TzName":null,"streets":"רמפה 4 / רמפה מחלף אשקלון צפון","Authority":null,"domain":1,"new":null},
"geometry":{"type":"Point","coordinates":[34.620674,31.70402]}}
,
{"type":"Feature",
"id":178,"properties":{"mahoz":6,"semel":359,"city":"ניצנים","nrashut":1,"TzName":null,"streets":"רמפה 4 / רמפה מחלף אשקלון צפון","Authority":null,"domain":1,"new":null},
"geometry":{"type":"Point","coordinates":[34.621711,31.703449]}}
,
{"type":"Feature",
"id":179,"properties":{"mahoz":6,"semel":726,"city":"הודיה","nrashut":2,"TzName":"הודיה מערבי","streets":"3,232","Authority":"נתיבי ישראל","domain":2,"new":null},
"geometry":{"type":"Point","coordinates":[34.651758,31.682471]}}
,
{"type":"Feature",
"id":180,"properties":{"mahoz":6,"semel":726,"city":"הודיה","nrashut":3,"TzName":"צומת","streets":"3,232","Authority":"נתיבי ישראל","domain":2,"new":null},
"geometry":{"type":"Point","coordinates":[34.65338,31.683004]}}
,
{"type":"Feature",
"id":181,"properties":{"mahoz":6,"semel":293,"city":"שדה יואב","nrashut":2,"TzName":"צומת נהורה","streets":"352","Authority":"נתיבי ישראל","domain":2,"new":null},
"geometry":{"type":"Point","coordinates":[34.699668,31.645933]}}
,
{"type":"Feature",
"id":182,"properties":{"mahoz":6,"semel":32,"city":"עוצם","nrashut":1,"TzName":"כניסה ליד נתן","streets":"35 / המייסדים","Authority":"נתיבי ישראל","domain":2,"new":null},
"geometry":{"type":"Point","coordinates":[34.706399,31.645047]}}
,
{"type":"Feature",
"id":183,"properties":{"mahoz":6,"semel":2051,"city":"רווחה","nrashut":1,"TzName":"כניסה צפונית לרו","streets":"3535","Authority":"נתיבי ישראל","domain":2,"new":null},
"geometry":{"type":"Point","coordinates":[34.730812,31.644636]}}
,
{"type":"Feature",
"id":184,"properties":{"mahoz":6,"semel":5534,"city":"שפיר","nrashut":1,"TzName":"כניסה למחנה עמנו","streets":"3","Authority":"נתיבי ישראל","domain":2,"new":null},
"geometry":{"type":"Point","coordinates":[34.678953,31.690935]}}
,
{"type":"Feature",
"id":185,"properties":{"mahoz":6,"semel":5534,"city":"שפיר","nrashut":2,"TzName":"כניסה לנגבה","streets":"3612","Authority":"נתיבי ישראל","domain":2,"new":null},
"geometry":{"type":"Point","coordinates":[34.680345,31.691614]}}
,
{"type":"Feature",
"id":186,"properties":{"mahoz":6,"semel":620,"city":"משואות יצחק","nrashut":1,"TzName":"כניסה למשואות יצ","streets":"3614","Authority":"נתיבי ישראל","domain":2,"new":null},
"geometry":{"type":"Point","coordinates":[34.695076,31.696087]}}
,
{"type":"Feature",
"id":187,"properties":{"mahoz":6,"semel":5534,"city":"שפיר","nrashut":3,"TzName":"כניסה למרכז שפיר","streets":"3 / אחוזת אתרוג","Authority":"נתיבי ישראל","domain":2,"new":null},
"geometry":{"type":"Point","coordinates":[34.707418,31.699904]}}
,
{"type":"Feature",
"id":188,"properties":{"mahoz":6,"semel":620,"city":"משואות יצחק","nrashut":2,"TzName":"כניסה לעין צורים","streets":"3616","Authority":"נתיבי ישראל","domain":2,"new":null},
"geometry":{"type":"Point","coordinates":[34.7143,31.702455]}}
,
{"type":"Feature",
"id":189,"properties":{"mahoz":6,"semel":620,"city":"משואות יצחק","nrashut":3,"TzName":"שפיר","streets":"3613","Authority":"נתיבי ישראל","domain":2,"new":null},
"geometry":{"type":"Point","coordinates":[34.71981,31.704431]}}
,
{"type":"Feature",
"id":190,"properties":{"mahoz":6,"semel":400,"city":"אבן שמואל","nrashut":1,"TzName":"צומת איתן - אבן ש","streets":"3403 / 40","Authority":"נתיבי ישראל","domain":2,"new":null},
"geometry":{"type":"Point","coordinates":[34.758885,31.573121]}}
,
{"type":"Feature",
"id":191,"properties":{"mahoz":6,"semel":2630,"city":"קרית גת","nrashut":1,"TzName":"צומת קריית גת","streets":"40 / הדרום (3444)","Authority":"נתיבי ישראל","domain":2,"new":null},
"geometry":{"type":"Point","coordinates":[34.754549,31.597789]}}
,
{"type":"Feature",
"id":192,"properties":{"mahoz":6,"semel":5534,"city":"שפיר","nrashut":4,"TzName":"כניסה למחנה פלוג","streets":"35","Authority":"נתיבי ישראל","domain":2,"new":1},
"geometry":{"type":"Point","coordinates":[34.746688,31.630521]}}
,
{"type":"Feature",
"id":193,"properties":{"mahoz":6,"semel":5534,"city":"שפיר","nrashut":5,"TzName":"צומת פלוגות","streets":"35 / 40","Authority":"נתיבי ישראל","domain":2,"new":null},
"geometry":{"type":"Point","coordinates":[34.757516,31.625889]}}
,
{"type":"Feature",
"id":194,"properties":{"mahoz":6,"semel":815,"city":"זבדיאל","nrashut":1,"TzName":"צומת קוממיות צפו","streets":"3533 / 40","Authority":"נתיבי ישראל","domain":2,"new":null},
"geometry":{"type":"Point","coordinates":[34.764409,31.651977]}}
,
{"type":"Feature",
"id":195,"properties":{"mahoz":6,"semel":815,"city":"זבדיאל","nrashut":2,"TzName":"צומת קוממיות דרו","streets":"353 / 40","Authority":"נתיבי ישראל","domain":2,"new":null},
"geometry":{"type":"Point","coordinates":[34.764856,31.65089]}}
,
{"type":"Feature",
"id":196,"properties":{"mahoz":6,"semel":2630,"city":"קרית גת","nrashut":2,"TzName":null,"streets":"הדרום (3444) / העצמאות","Authority":null,"domain":1,"new":null},
"geometry":{"type":"Point","coordinates":[34.780037,31.609618]}}
,
{"type":"Feature",
"id":197,"properties":{"mahoz":6,"semel":2630,"city":"קרית גת","nrashut":3,"TzName":null,"streets":"הדרום (3444)","Authority":null,"domain":1,"new":null},
"geometry":{"type":"Point","coordinates":[34.780471,31.610667]}}
,
{"type":"Feature",
"id":198,"properties":{"mahoz":6,"semel":2630,"city":"קרית גת","nrashut":4,"TzName":null,"streets":"הדרום (3444)","Authority":null,"domain":1,"new":null},
"geometry":{"type":"Point","coordinates":[34.780341,31.61542]}}
,
{"type":"Feature",
"id":199,"properties":{"mahoz":6,"semel":2630,"city":"קרית גת","nrashut":5,"TzName":"כניסה לאזור תעשי","streets":"3540 / ישראל פולק","Authority":"נתיבי ישראל","domain":2,"new":null},
"geometry":{"type":"Point","coordinates":[34.786758,31.608385]}}
,
{"type":"Feature",
"id":200,"properties":{"mahoz":6,"semel":553,"city":"ניר בנים","nrashut":1,"TzName":"כניסה לניר בנים","streets":"3613 / 40","Authority":"נתיבי ישראל","domain":2,"new":1},
"geometry":{"type":"Point","coordinates":[34.76521,31.678401]}}
,
{"type":"Feature",
"id":201,"properties":{"mahoz":6,"semel":320,"city":"כפר ורבורג","nrashut":1,"TzName":"כניסה לאביגדור","streets":"3617","Authority":"נתיבי ישראל","domain":2,"new":null},
"geometry":{"type":"Point","coordinates":[34.735789,31.713255]}}
,
{"type":"Feature",
"id":202,"properties":{"mahoz":6,"semel":320,"city":"כפר ורבורג","nrashut":2,"TzName":"כניסה לכפר ורבור","streets":"3618","Authority":"נתיבי ישראל","domain":2,"new":null},
"geometry":{"type":"Point","coordinates":[34.736361,31.713884]}}
,
{"type":"Feature",
"id":203,"properties":{"mahoz":6,"semel":819,"city":"אביגדור","nrashut":1,"TzName":"כניסה לקדמה","streets":"3611 / 40","Authority":"נתיבי ישראל","domain":2,"new":1},
"geometry":{"type":"Point","coordinates":[34.758863,31.697584]}}
,
{"type":"Feature",
"id":204,"properties":{"mahoz":6,"semel":163,"city":"תימורים","nrashut":1,"TzName":"כניסה לתימורים","streets":"3619 / 40","Authority":"נתיבי ישראל","domain":2,"new":null},
"geometry":{"type":"Point","coordinates":[34.753795,31.718934]}}
,
{"type":"Feature",
"id":205,"properties":{"mahoz":6,"semel":815,"city":"זבדיאל","nrashut":3,"TzName":"צומת נחלה","streets":"3553 / 40","Authority":"נתיבי ישראל","domain":2,"new":null},
"geometry":{"type":"Point","coordinates":[34.770861,31.666678]}}
,
{"type":"Feature",
"id":206,"properties":{"mahoz":6,"semel":24,"city":"לכיש","nrashut":1,"TzName":"מחלף קריית גת - מ","streets":"רמפה 35 / רמפה 6 דרום","Authority":"נתיבי ישראל","domain":2,"new":null},
"geometry":{"type":"Point","coordinates":[34.811989,31.5996]}}
,
{"type":"Feature",
"id":207,"properties":{"mahoz":6,"semel":359,"city":"ניצנים","nrashut":2,"TzName":"צומת אשכולות","streets":"232 / 4","Authority":"נתיבי ישראל","domain":2,"new":null},
"geometry":{"type":"Point","coordinates":[34.635794,31.724315]}}
,
{"type":"Feature",
"id":208,"properties":{"mahoz":6,"semel":756,"city":"בית עזרא","nrashut":1,"TzName":"צומת בית עזרא","streets":"4","Authority":"נתיבי ישראל","domain":2,"new":null},
"geometry":{"type":"Point","coordinates":[34.645764,31.741445]}}
,
{"type":"Feature",
"id":209,"properties":{"mahoz":6,"semel":70,"city":"אשדוד","nrashut":1,"TzName":null,"streets":"בני ברית / יותם המלך / כוכב השחר","Authority":null,"domain":1,"new":null},
"geometry":{"type":"Point","coordinates":[34.640583,31.777761]}}
,
{"type":"Feature",
"id":210,"properties":{"mahoz":6,"semel":70,"city":"אשדוד","nrashut":2,"TzName":null,"streets":"בני ברית / עובד בן עמי / תשרי","Authority":null,"domain":1,"new":null},
"geometry":{"type":"Point","coordinates":[34.643199,31.781689]}}
,
{"type":"Feature",
"id":211,"properties":{"mahoz":6,"semel":70,"city":"אשדוד","nrashut":3,"TzName":null,"streets":"המייסדים / הפרחים / מנחם בגין","Authority":null,"domain":1,"new":null},
"geometry":{"type":"Point","coordinates":[34.65052,31.784598]}}
,
{"type":"Feature",
"id":212,"properties":{"mahoz":6,"semel":739,"city":"שדה עוזיהו","nrashut":1,"TzName":"צומת אמונים (עזר","streets":"3711 / 4","Authority":"נתיבי ישראל","domain":2,"new":null},
"geometry":{"type":"Point","coordinates":[34.662771,31.753153]}}
,
{"type":"Feature",
"id":213,"properties":{"mahoz":6,"semel":739,"city":"שדה עוזיהו","nrashut":2,"TzName":"כניסה לשדה עוזיה","streets":"3717 / 4","Authority":"נתיבי ישראל","domain":2,"new":null},
"geometry":{"type":"Point","coordinates":[34.667232,31.761271]}}
,
{"type":"Feature",
"id":214,"properties":{"mahoz":6,"semel":739,"city":"שדה עוזיהו","nrashut":3,"TzName":"צומת עד הלום","streets":"4","Authority":"נתיבי ישראל","domain":2,"new":null},
"geometry":{"type":"Point","coordinates":[34.667484,31.766782]}}
,
{"type":"Feature",
"id":215,"properties":{"mahoz":6,"semel":70,"city":"אשדוד","nrashut":4,"TzName":null,"streets":"אלטלנה / הרפואה","Authority":null,"domain":1,"new":null},
"geometry":{"type":"Point","coordinates":[34.653387,31.780147]}}
,
{"type":"Feature",
"id":216,"properties":{"mahoz":6,"semel":70,"city":"אשדוד","nrashut":5,"TzName":null,"streets":"אלטלנה / מנחם בגין","Authority":null,"domain":1,"new":null},
"geometry":{"type":"Point","coordinates":[34.655144,31.782346]}}
,
{"type":"Feature",
"id":217,"properties":{"mahoz":6,"semel":70,"city":"אשדוד","nrashut":6,"TzName":null,"streets":"אלטלנה / הכלנית","Authority":null,"domain":1,"new":1},
"geometry":{"type":"Point","coordinates":[34.655897,31.7837]}}
,
{"type":"Feature",
"id":218,"properties":{"mahoz":6,"semel":70,"city":"אשדוד","nrashut":7,"TzName":null,"streets":"המשנה / מנחם בגין","Authority":null,"domain":1,"new":null},
"geometry":{"type":"Point","coordinates":[34.660725,31.779593]}}
,
{"type":"Feature",
"id":219,"properties":{"mahoz":6,"semel":70,"city":"אשדוד","nrashut":8,"TzName":null,"streets":"הרכבת / מנחם בגין / משה סנה","Authority":null,"domain":1,"new":null},
"geometry":{"type":"Point","coordinates":[34.663334,31.778298]}}
,
{"type":"Feature",
"id":220,"properties":{"mahoz":6,"semel":70,"city":"אשדוד","nrashut":9,"TzName":null,"streets":"הרצל / עובד בן עמי","Authority":null,"domain":1,"new":null},
"geometry":{"type":"Point","coordinates":[34.637609,31.78552]}}
,
{"type":"Feature",
"id":221,"properties":{"mahoz":6,"semel":70,"city":"אשדוד","nrashut":10,"TzName":null,"streets":"הרצל / מנחם בגין","Authority":null,"domain":1,"new":null},
"geometry":{"type":"Point","coordinates":[34.640491,31.789495]}}
,
{"type":"Feature",
"id":222,"properties":{"mahoz":6,"semel":70,"city":"אשדוד","nrashut":11,"TzName":null,"streets":"הגדוד העברי / הרצל","Authority":null,"domain":1,"new":null},
"geometry":{"type":"Point","coordinates":[34.640378,31.791785]}}
,
{"type":"Feature",
"id":223,"properties":{"mahoz":6,"semel":70,"city":"אשדוד","nrashut":12,"TzName":null,"streets":"הרצל","Authority":null,"domain":1,"new":null},
"geometry":{"type":"Point","coordinates":[34.640574,31.790249]}}
,
{"type":"Feature",
"id":224,"properties":{"mahoz":6,"semel":70,"city":"אשדוד","nrashut":13,"TzName":null,"streets":"החלוצים / הרצל","Authority":null,"domain":1,"new":null},
"geometry":{"type":"Point","coordinates":[34.640845,31.792698]}}
,
{"type":"Feature",
"id":225,"properties":{"mahoz":6,"semel":70,"city":"אשדוד","nrashut":14,"TzName":null,"streets":"ירושלים / משה דיין","Authority":null,"domain":1,"new":null},
"geometry":{"type":"Point","coordinates":[34.637549,31.796367]}}
,
{"type":"Feature",
"id":226,"properties":{"mahoz":6,"semel":70,"city":"אשדוד","nrashut":15,"TzName":null,"streets":"הבנים / ירושלים / קרן היסוד","Authority":null,"domain":1,"new":null},
"geometry":{"type":"Point","coordinates":[34.639886,31.795479]}}
,
{"type":"Feature",
"id":227,"properties":{"mahoz":6,"semel":70,"city":"אשדוד","nrashut":16,"TzName":null,"streets":"הרצל / ירושלים","Authority":null,"domain":1,"new":null},
"geometry":{"type":"Point","coordinates":[34.64198,31.794424]}}
,
{"type":"Feature",
"id":228,"properties":{"mahoz":6,"semel":70,"city":"אשדוד","nrashut":17,"TzName":null,"streets":"חיים משה שפירא / רוגוזין","Authority":null,"domain":1,"new":null},
"geometry":{"type":"Point","coordinates":[34.640692,31.801358]}}
,
{"type":"Feature",
"id":229,"properties":{"mahoz":6,"semel":70,"city":"אשדוד","nrashut":18,"TzName":null,"streets":"חיים משה שפירא / קרן היסוד","Authority":null,"domain":1,"new":null},
"geometry":{"type":"Point","coordinates":[34.643101,31.800166]}}
,
{"type":"Feature",
"id":230,"properties":{"mahoz":6,"semel":70,"city":"אשדוד","nrashut":19,"TzName":null,"streets":"בני ברית / יואב בן צרויה / מנחם בגין","Authority":null,"domain":1,"new":null},
"geometry":{"type":"Point","coordinates":[34.646442,31.786556]}}
,
{"type":"Feature",
"id":231,"properties":{"mahoz":6,"semel":70,"city":"אשדוד","nrashut":20,"TzName":null,"streets":"התקומה / ירושלים / משה אבן עזרא","Authority":null,"domain":1,"new":null},
"geometry":{"type":"Point","coordinates":[34.645249,31.792949]}}
,
{"type":"Feature",
"id":232,"properties":{"mahoz":6,"semel":70,"city":"אשדוד","nrashut":21,"TzName":null,"streets":"בני ברית / ירושלים","Authority":null,"domain":1,"new":null},
"geometry":{"type":"Point","coordinates":[34.649743,31.791505]}}
,
{"type":"Feature",
"id":233,"properties":{"mahoz":6,"semel":70,"city":"אשדוד","nrashut":22,"TzName":null,"streets":"יהודה הלוי / משה אבן עזרא","Authority":null,"domain":1,"new":null},
"geometry":{"type":"Point","coordinates":[34.648188,31.796352]}}
,
{"type":"Feature",
"id":234,"properties":{"mahoz":6,"semel":70,"city":"אשדוד","nrashut":23,"TzName":null,"streets":"הרצל / חיים משה שפירא / יהודה הלוי","Authority":null,"domain":1,"new":null},
"geometry":{"type":"Point","coordinates":[34.645211,31.799141]}}
,
{"type":"Feature",
"id":235,"properties":{"mahoz":6,"semel":70,"city":"אשדוד","nrashut":24,"TzName":null,"streets":"בני ברית / דב גור / יהודה הלוי","Authority":null,"domain":1,"new":null},
"geometry":{"type":"Point","coordinates":[34.651073,31.793552]}}
,
{"type":"Feature",
"id":236,"properties":{"mahoz":6,"semel":70,"city":"אשדוד","nrashut":25,"TzName":null,"streets":"יצחק הנשיא / משה אבן עזרא / קיבוץ גלויות","Authority":null,"domain":1,"new":null},
"geometry":{"type":"Point","coordinates":[34.650628,31.801229]}}
,
{"type":"Feature",
"id":237,"properties":{"mahoz":6,"semel":70,"city":"אשדוד","nrashut":26,"TzName":null,"streets":"יצחק הנשיא / רוגוזין","Authority":null,"domain":1,"new":null},
"geometry":{"type":"Point","coordinates":[34.642883,31.804649]}}
,
{"type":"Feature",
"id":238,"properties":{"mahoz":6,"semel":70,"city":"אשדוד","nrashut":27,"TzName":null,"streets":"מקס נורדאו / רוגוזין / שבי ציון","Authority":null,"domain":1,"new":null},
"geometry":{"type":"Point","coordinates":[34.644538,31.808399]}}
,
{"type":"Feature",
"id":239,"properties":{"mahoz":6,"semel":70,"city":"אשדוד","nrashut":28,"TzName":null,"streets":"הרצל / יצחק הנשיא","Authority":null,"domain":1,"new":null},
"geometry":{"type":"Point","coordinates":[34.647588,31.802625]}}
,
{"type":"Feature",
"id":240,"properties":{"mahoz":6,"semel":70,"city":"אשדוד","nrashut":29,"TzName":null,"streets":"הראשונים / שבי ציון","Authority":null,"domain":1,"new":null},
"geometry":{"type":"Point","coordinates":[34.64668,31.807931]}}
,
{"type":"Feature",
"id":241,"properties":{"mahoz":6,"semel":70,"city":"אשדוד","nrashut":30,"TzName":null,"streets":"הרצל / שבי ציון","Authority":null,"domain":1,"new":null},
"geometry":{"type":"Point","coordinates":[34.650028,31.807174]}}
,
{"type":"Feature",
"id":242,"properties":{"mahoz":6,"semel":70,"city":"אשדוד","nrashut":31,"TzName":null,"streets":"אורט / הראשונים / ז'בוטינסקי","Authority":null,"domain":1,"new":null},
"geometry":{"type":"Point","coordinates":[34.647479,31.811674]}}
,
{"type":"Feature",
"id":243,"properties":{"mahoz":6,"semel":70,"city":"אשדוד","nrashut":32,"TzName":null,"streets":"הרצל / ז'בוטינסקי","Authority":null,"domain":1,"new":null},
"geometry":{"type":"Point","coordinates":[34.651824,31.81061]}}
,
{"type":"Feature",
"id":244,"properties":{"mahoz":6,"semel":70,"city":"אשדוד","nrashut":33,"TzName":null,"streets":"ב.צ. מילמן / הפרחים / ירושלים","Authority":null,"domain":1,"new":null},
"geometry":{"type":"Point","coordinates":[34.653976,31.790126]}}
,
{"type":"Feature",
"id":245,"properties":{"mahoz":6,"semel":70,"city":"אשדוד","nrashut":34,"TzName":null,"streets":"אלטלנה / הרב לוין / ירושלים","Authority":null,"domain":1,"new":null},
"geometry":{"type":"Point","coordinates":[34.658537,31.788678]}}
,
{"type":"Feature",
"id":246,"properties":{"mahoz":6,"semel":70,"city":"אשדוד","nrashut":35,"TzName":null,"streets":"דב גור / הרב לוין / רשב''י","Authority":null,"domain":1,"new":null},
"geometry":{"type":"Point","coordinates":[34.659129,31.790548]}}
,
{"type":"Feature",
"id":247,"properties":{"mahoz":6,"semel":70,"city":"אשדוד","nrashut":36,"TzName":null,"streets":"בני ברית / יצחק הנשיא","Authority":null,"domain":1,"new":null},
"geometry":{"type":"Point","coordinates":[34.65444,31.79864]}}
,
{"type":"Feature",
"id":248,"properties":{"mahoz":6,"semel":70,"city":"אשדוד","nrashut":37,"TzName":null,"streets":"האדמו''ר מפיטסבורג / יצחק הנשיא / שלמה בן יוסף","Authority":null,"domain":1,"new":null},
"geometry":{"type":"Point","coordinates":[34.658026,31.796796]}}
,
{"type":"Feature",
"id":249,"properties":{"mahoz":6,"semel":70,"city":"אשדוד","nrashut":38,"TzName":null,"streets":"ירושלים / משה סנה","Authority":null,"domain":1,"new":null},
"geometry":{"type":"Point","coordinates":[34.667632,31.78576]}}
,
{"type":"Feature",
"id":250,"properties":{"mahoz":6,"semel":70,"city":"אשדוד","nrashut":39,"TzName":null,"streets":"משה סנה / רבי שמעון בן שטח","Authority":null,"domain":1,"new":null},
"geometry":{"type":"Point","coordinates":[34.668025,31.79304]}}
,
{"type":"Feature",
"id":251,"properties":{"mahoz":6,"semel":70,"city":"אשדוד","nrashut":40,"TzName":null,"streets":"בני ברית / הפלמ''ח / מורדי הגטאות","Authority":null,"domain":1,"new":null},
"geometry":{"type":"Point","coordinates":[34.660213,31.804694]}}
,
{"type":"Feature",
"id":252,"properties":{"mahoz":6,"semel":70,"city":"אשדוד","nrashut":41,"TzName":null,"streets":"הנשיא וייצמן / ז'בוטינסקי","Authority":null,"domain":1,"new":null},
"geometry":{"type":"Point","coordinates":[34.658048,31.808124]}}
,
{"type":"Feature",
"id":253,"properties":{"mahoz":6,"semel":70,"city":"אשדוד","nrashut":42,"TzName":null,"streets":"בן גוריון / הנשיא וייצמן","Authority":null,"domain":1,"new":null},
"geometry":{"type":"Point","coordinates":[34.659053,31.809648]}}
,
{"type":"Feature",
"id":254,"properties":{"mahoz":6,"semel":70,"city":"אשדוד","nrashut":43,"TzName":null,"streets":"בן גוריון / הרצל","Authority":null,"domain":1,"new":null},
"geometry":{"type":"Point","coordinates":[34.653588,31.812743]}}
,
{"type":"Feature",
"id":255,"properties":{"mahoz":6,"semel":70,"city":"אשדוד","nrashut":44,"TzName":null,"streets":"הרצל / התעסוקה","Authority":null,"domain":1,"new":null},
"geometry":{"type":"Point","coordinates":[34.656597,31.816596]}}
,
{"type":"Feature",
"id":256,"properties":{"mahoz":6,"semel":70,"city":"אשדוד","nrashut":45,"TzName":null,"streets":"האורגים / היהלומים / הנשיא וייצמן","Authority":null,"domain":1,"new":null},
"geometry":{"type":"Point","coordinates":[34.66021,31.811512]}}
,
{"type":"Feature",
"id":257,"properties":{"mahoz":6,"semel":70,"city":"אשדוד","nrashut":46,"TzName":null,"streets":"בני ברית / ז'בוטינסקי","Authority":null,"domain":1,"new":null},
"geometry":{"type":"Point","coordinates":[34.661969,31.806056]}}
,
{"type":"Feature",
"id":258,"properties":{"mahoz":6,"semel":70,"city":"אשדוד","nrashut":47,"TzName":null,"streets":"בן גוריון / בני ברית / משה סנה","Authority":null,"domain":1,"new":null},
"geometry":{"type":"Point","coordinates":[34.663176,31.807334]}}
,
{"type":"Feature",
"id":259,"properties":{"mahoz":6,"semel":70,"city":"אשדוד","nrashut":48,"TzName":null,"streets":"בני ברית / האורגים / הנחושת","Authority":null,"domain":1,"new":null},
"geometry":{"type":"Point","coordinates":[34.664454,31.810006]}}
,
{"type":"Feature",
"id":260,"properties":{"mahoz":6,"semel":70,"city":"אשדוד","nrashut":49,"TzName":null,"streets":"לסקוב / מבוא הימאים","Authority":null,"domain":1,"new":null},
"geometry":{"type":"Point","coordinates":[34.649444,31.820845]}}
,
{"type":"Feature",
"id":261,"properties":{"mahoz":6,"semel":70,"city":"אשדוד","nrashut":50,"TzName":"צומת דרך תל מור א","streets":"תל מור","Authority":null,"domain":1,"new":null},
"geometry":{"type":"Point","coordinates":[34.657731,31.825654]}}
,
{"type":"Feature",
"id":262,"properties":{"mahoz":6,"semel":70,"city":"אשדוד","nrashut":51,"TzName":null,"streets":"הרצל / תל מור","Authority":null,"domain":1,"new":null},
"geometry":{"type":"Point","coordinates":[34.659357,31.826249]}}
,
{"type":"Feature",
"id":263,"properties":{"mahoz":6,"semel":70,"city":"אשדוד","nrashut":52,"TzName":null,"streets":"7","Authority":null,"domain":1,"new":null},
"geometry":{"type":"Point","coordinates":[34.658705,31.828462]}}
,
{"type":"Feature",
"id":264,"properties":{"mahoz":6,"semel":70,"city":"אשדוד","nrashut":53,"TzName":null,"streets":"ארווין שלזינגר / בני ברית / הבושם","Authority":null,"domain":1,"new":null},
"geometry":{"type":"Point","coordinates":[34.668802,31.818966]}}
,
{"type":"Feature",
"id":265,"properties":{"mahoz":6,"semel":70,"city":"אשדוד","nrashut":54,"TzName":null,"streets":"ניר גלים (7) / נתיבי הים / תל מור","Authority":null,"domain":1,"new":null},
"geometry":{"type":"Point","coordinates":[34.662984,31.828281]}}
,
{"type":"Feature",
"id":266,"properties":{"mahoz":6,"semel":70,"city":"אשדוד","nrashut":55,"TzName":null,"streets":null,"Authority":null,"domain":1,"new":1},
"geometry":{"type":"Point","coordinates":[34.661541,31.829838]}}
,
{"type":"Feature",
"id":267,"properties":{"mahoz":6,"semel":70,"city":"אשדוד","nrashut":56,"TzName":null,"streets":"נתיבי הים","Authority":null,"domain":1,"new":1},
"geometry":{"type":"Point","coordinates":[34.663304,31.829413]}}
,
{"type":"Feature",
"id":268,"properties":{"mahoz":6,"semel":70,"city":"אשדוד","nrashut":57,"TzName":null,"streets":"חלוצי התעשייה / נתיבי הים","Authority":null,"domain":1,"new":null},
"geometry":{"type":"Point","coordinates":[34.664175,31.831054]}}
,
{"type":"Feature",
"id":269,"properties":{"mahoz":6,"semel":70,"city":"אשדוד","nrashut":58,"TzName":"כניסה לחברת חשמל","streets":"ניר גלים (7)","Authority":null,"domain":1,"new":1},
"geometry":{"type":"Point","coordinates":[34.666429,31.828737]}}
,
{"type":"Feature",
"id":270,"properties":{"mahoz":6,"semel":70,"city":"אשדוד","nrashut":59,"TzName":null,"streets":"חרטום","Authority":null,"domain":1,"new":1},
"geometry":{"type":"Point","coordinates":[34.662873,31.845418]}}
,
{"type":"Feature",
"id":271,"properties":{"mahoz":6,"semel":70,"city":"אשדוד","nrashut":60,"TzName":null,"streets":"אריאל שרון / נמלי ישראל","Authority":null,"domain":1,"new":1},
"geometry":{"type":"Point","coordinates":[34.665246,31.843959]}}
,
{"type":"Feature",
"id":272,"properties":{"mahoz":4,"semel":166,"city":"גן יבנה","nrashut":1,"TzName":"צומת גן יבנה","streets":"3714 / 4","Authority":"נתיבי ישראל","domain":2,"new":null},
"geometry":{"type":"Point","coordinates":[34.673191,31.78415]}}
,
{"type":"Feature",
"id":273,"properties":{"mahoz":4,"semel":166,"city":"גן יבנה","nrashut":2,"TzName":"צומת שתולים","streets":"3714","Authority":"נתיבי ישראל","domain":2,"new":null},
"geometry":{"type":"Point","coordinates":[34.674257,31.783298]}}
,
{"type":"Feature",
"id":274,"properties":{"mahoz":4,"semel":334,"city":"קבוצת יבנה","nrashut":1,"TzName":"כניסה לתחנת דלק","streets":"רמפה 42","Authority":"נתיבי ישראל","domain":2,"new":null},
"geometry":{"type":"Point","coordinates":[34.700576,31.81681]}}
,
{"type":"Feature",
"id":275,"properties":{"mahoz":6,"semel":70,"city":"אשדוד","nrashut":61,"TzName":"צומת נמל אשדוד","streets":"בני ברית / המדע / ניר גלים (7)","Authority":"נתיבי ישראל","domain":2,"new":null},
"geometry":{"type":"Point","coordinates":[34.670953,31.828256]}}
,
{"type":"Feature",
"id":276,"properties":{"mahoz":4,"semel":720,"city":"ניר גלים","nrashut":1,"TzName":"כניסה לניר גלים","streets":"7 / הנפט / השדרה החקלאית","Authority":"נתיבי ישראל","domain":2,"new":null},
"geometry":{"type":"Point","coordinates":[34.684458,31.829238]}}
,
{"type":"Feature",
"id":277,"properties":{"mahoz":6,"semel":70,"city":"אשדוד","nrashut":62,"TzName":null,"streets":"המדע / הנפט","Authority":null,"domain":1,"new":null},
"geometry":{"type":"Point","coordinates":[34.683772,31.832518]}}
,
{"type":"Feature",
"id":278,"properties":{"mahoz":6,"semel":70,"city":"אשדוד","nrashut":63,"TzName":null,"streets":"הנפט / הקידמה","Authority":null,"domain":1,"new":1},
"geometry":{"type":"Point","coordinates":[34.683751,31.835031]}}
,
{"type":"Feature",
"id":279,"properties":{"mahoz":6,"semel":70,"city":"אשדוד","nrashut":64,"TzName":null,"streets":"היוזמה / הנפט","Authority":null,"domain":1,"new":1},
"geometry":{"type":"Point","coordinates":[34.683734,31.837804]}}
,
{"type":"Feature",
"id":280,"properties":{"mahoz":6,"semel":720,"city":"ניר גלים","nrashut":2,"TzName":"כניסה לבני דרום","streets":"4003 / 7","Authority":"נתיבי ישראל","domain":2,"new":null},
"geometry":{"type":"Point","coordinates":[34.691854,31.831262]}}
,
{"type":"Feature",
"id":281,"properties":{"mahoz":4,"semel":1072,"city":"גן הדרום","nrashut":1,"TzName":null,"streets":"42","Authority":"נתיבי ישראל","domain":2,"new":null},
"geometry":{"type":"Point","coordinates":[34.702389,31.817822]}}
,
{"type":"Feature",
"id":282,"properties":{"mahoz":4,"semel":1072,"city":"גן הדרום","nrashut":2,"TzName":null,"streets":"42","Authority":"נתיבי ישראל","domain":2,"new":1},
"geometry":{"type":"Point","coordinates":[34.703106,31.818382]}}
,
{"type":"Feature",
"id":283,"properties":{"mahoz":4,"semel":334,"city":"קבוצת יבנה","nrashut":2,"TzName":"מחלף אשדוד - מזרח","streets":"42 / רמפה 7","Authority":"נתיבי ישראל","domain":2,"new":null},
"geometry":{"type":"Point","coordinates":[34.705846,31.822503]}}
,
{"type":"Feature",
"id":284,"properties":{"mahoz":4,"semel":334,"city":"קבוצת יבנה","nrashut":3,"TzName":"מחלף אשדוד - מזרח","streets":"רמפה 42","Authority":"נתיבי ישראל","domain":2,"new":null},
"geometry":{"type":"Point","coordinates":[34.706583,31.823471]}}
,
{"type":"Feature",
"id":285,"properties":{"mahoz":6,"semel":70,"city":"אשדוד","nrashut":65,"TzName":null,"streets":"רמפה 4 / רמפה מחלף אשדוד צפון","Authority":null,"domain":1,"new":1},
"geometry":{"type":"Point","coordinates":[34.7088,31.850814]}}
,
{"type":"Feature",
"id":286,"properties":{"mahoz":6,"semel":760,"city":"בן זכאי","nrashut":1,"TzName":null,"streets":"רמפה 4 / רמפה מחלף אשדוד צפון","Authority":null,"domain":1,"new":1},
"geometry":{"type":"Point","coordinates":[34.712329,31.850458]}}
,
{"type":"Feature",
"id":287,"properties":{"mahoz":4,"semel":2660,"city":"יבנה","nrashut":1,"TzName":null,"streets":"הסנהדרין (4111) / רמפה 4111","Authority":"נתיבי ישראל","domain":2,"new":null},
"geometry":{"type":"Point","coordinates":[34.729743,31.888993]}}
,
{"type":"Feature",
"id":288,"properties":{"mahoz":4,"semel":2660,"city":"יבנה","nrashut":2,"TzName":null,"streets":"הסנהדרין (4111) / שידלובסקי","Authority":null,"domain":1,"new":null},
"geometry":{"type":"Point","coordinates":[34.73226,31.888774]}}
,
{"type":"Feature",
"id":289,"properties":{"mahoz":4,"semel":2660,"city":"יבנה","nrashut":3,"TzName":null,"streets":"הסנהדרין (4111) / ירושלים","Authority":null,"domain":1,"new":null},
"geometry":{"type":"Point","coordinates":[34.734077,31.888203]}}
,
{"type":"Feature",
"id":290,"properties":{"mahoz":6,"semel":1761,"city":"מפעלי צומת מלאכי","nrashut":1,"TzName":"צומת טוביה","streets":"יגאל הורביץ (3703)","Authority":"נתיבי ישראל","domain":2,"new":null},
"geometry":{"type":"Point","coordinates":[34.745929,31.723202]}}
,
{"type":"Feature",
"id":291,"properties":{"mahoz":6,"semel":1761,"city":"מפעלי צומת מלאכי","nrashut":2,"TzName":"קרית מלאכי דרום (","streets":"3 / דוד בן גוריון / הבאר","Authority":"נתיבי ישראל","domain":2,"new":null},
"geometry":{"type":"Point","coordinates":[34.749505,31.727377]}}
,
{"type":"Feature",
"id":292,"properties":{"mahoz":6,"semel":1761,"city":"מפעלי צומת מלאכי","nrashut":3,"TzName":null,"streets":"3 / מנחם בגין","Authority":"נתיבי ישראל","domain":2,"new":null},
"geometry":{"type":"Point","coordinates":[34.753559,31.730351]}}
,
{"type":"Feature",
"id":293,"properties":{"mahoz":6,"semel":1761,"city":"מפעלי צומת מלאכי","nrashut":4,"TzName":"כניסה לקריית מלא","streets":"3","Authority":"נתיבי ישראל","domain":2,"new":null},
"geometry":{"type":"Point","coordinates":[34.75488,31.731132]}}
,
{"type":"Feature",
"id":294,"properties":{"mahoz":6,"semel":593,"city":"ערוגות","nrashut":1,"TzName":"צומת קסטינה","streets":"3,40 / 40","Authority":"נתיבי ישראל","domain":2,"new":null},
"geometry":{"type":"Point","coordinates":[34.757805,31.732691]}}
,
{"type":"Feature",
"id":295,"properties":{"mahoz":6,"semel":2011,"city":"ינון","nrashut":1,"TzName":"צומת תלמי יחיאל","streets":"3,40 / 3823 / 3824","Authority":"נתיבי ישראל","domain":2,"new":null},
"geometry":{"type":"Point","coordinates":[34.770505,31.747072]}}
,
{"type":"Feature",
"id":296,"properties":{"mahoz":6,"semel":5531,"city":"נחל שורק","nrashut":1,"TzName":"כניסה לחצב","streets":"40","Authority":"נתיבי ישראל","domain":2,"new":null},
"geometry":{"type":"Point","coordinates":[34.776548,31.781528]}}
,
{"type":"Feature",
"id":297,"properties":{"mahoz":6,"semel":1755,"city":"תעשיון ראם","nrashut":1,"TzName":"צומת ראם - מסמיה","streets":"3,40 / 40","Authority":"נתיבי ישראל","domain":2,"new":null},
"geometry":{"type":"Point","coordinates":[34.784629,31.760582]}}
,
{"type":"Feature",
"id":298,"properties":{"mahoz":6,"semel":1755,"city":"תעשיון ראם","nrashut":2,"TzName":"כניסה למ\"א שערי א","streets":"3","Authority":"נתיבי ישראל","domain":2,"new":1},
"geometry":{"type":"Point","coordinates":[34.789426,31.760821]}}
,
{"type":"Feature",
"id":299,"properties":{"mahoz":4,"semel":588,"city":"בני ראם","nrashut":1,"TzName":"צומת שערי אברהם (","streets":"383","Authority":"נתיבי ישראל","domain":2,"new":null},
"geometry":{"type":"Point","coordinates":[34.791689,31.761901]}}
,
{"type":"Feature",
"id":300,"properties":{"mahoz":6,"semel":234,"city":"ביצרון","nrashut":1,"TzName":"צומת ביצרון","streets":"3811 / העולים (3922) / תל חי","Authority":"נתיבי ישראל","domain":2,"new":null},
"geometry":{"type":"Point","coordinates":[34.736443,31.79576]}}
,
{"type":"Feature",
"id":301,"properties":{"mahoz":6,"semel":1753,"city":"מפעלי כנות","nrashut":1,"TzName":"כניסה צפונית לבנ","streets":"3922 / 3933","Authority":"נתיבי ישראל","domain":2,"new":1},
"geometry":{"type":"Point","coordinates":[34.760601,31.796084]}}
,
{"type":"Feature",
"id":302,"properties":{"mahoz":6,"semel":1066,"city":"בני עי''ש","nrashut":1,"TzName":"צומת חפץ חיים","streets":"40,3933","Authority":"נתיבי ישראל","domain":2,"new":null},
"geometry":{"type":"Point","coordinates":[34.766541,31.795913]}}
,
{"type":"Feature",
"id":303,"properties":{"mahoz":4,"semel":2550,"city":"גדרה","nrashut":1,"TzName":"מחלף גדרה - דרום","streets":"רמפה 40 / רמפה 7","Authority":"נתיבי ישראל","domain":2,"new":null},
"geometry":{"type":"Point","coordinates":[34.764491,31.803293]}}
,
{"type":"Feature",
"id":304,"properties":{"mahoz":4,"semel":2550,"city":"גדרה","nrashut":2,"TzName":null,"streets":"רמפה 40","Authority":"נתיבי ישראל","domain":2,"new":null},
"geometry":{"type":"Point","coordinates":[34.765586,31.806094]}}
,
{"type":"Feature",
"id":305,"properties":{"mahoz":4,"semel":2550,"city":"גדרה","nrashut":3,"TzName":"כניסה לגדרה - רחו","streets":"בן גוריון / הרצל (40)","Authority":"נתיבי ישראל","domain":2,"new":null},
"geometry":{"type":"Point","coordinates":[34.767012,31.808996]}}
,
{"type":"Feature",
"id":306,"properties":{"mahoz":6,"semel":2550,"city":"גדרה","nrashut":4,"TzName":"כניסה לבני עייש","streets":"40,3933","Authority":"נתיבי ישראל","domain":2,"new":null},
"geometry":{"type":"Point","coordinates":[34.769067,31.794441]}}
,
{"type":"Feature",
"id":307,"properties":{"mahoz":4,"semel":2550,"city":"גדרה","nrashut":5,"TzName":null,"streets":"הביל''ויים / הרצל (40)","Authority":"נתיבי ישראל","domain":2,"new":null},
"geometry":{"type":"Point","coordinates":[34.770763,31.815199]}}
,
{"type":"Feature",
"id":308,"properties":{"mahoz":4,"semel":2550,"city":"גדרה","nrashut":6,"TzName":"כניסה לתחנת דלק","streets":"הרצל (40) / ולדר וייס (4107)","Authority":"נתיבי ישראל","domain":2,"new":null},
"geometry":{"type":"Point","coordinates":[34.772604,31.817474]}}
,
{"type":"Feature",
"id":309,"properties":{"mahoz":4,"semel":2550,"city":"גדרה","nrashut":7,"TzName":"כניסה לגדרה","streets":"הרצל (40) / וייצמן","Authority":"נתיבי ישראל","domain":2,"new":null},
"geometry":{"type":"Point","coordinates":[34.773552,31.818913]}}
,
{"type":"Feature",
"id":310,"properties":{"mahoz":4,"semel":2550,"city":"גדרה","nrashut":8,"TzName":"כניסה לקדרון","streets":"הרצל (40) / יצחק בן צבי (4105)","Authority":"נתיבי ישראל","domain":2,"new":null},
"geometry":{"type":"Point","coordinates":[34.775708,31.824992]}}
,
{"type":"Feature",
"id":311,"properties":{"mahoz":4,"semel":562,"city":"בית אלעזרי","nrashut":1,"TzName":"צומת תל נוף","streets":"40 / 4103","Authority":"נתיבי ישראל","domain":2,"new":null},
"geometry":{"type":"Point","coordinates":[34.783784,31.836038]}}
,
{"type":"Feature",
"id":312,"properties":{"mahoz":6,"semel":5535,"city":"יואב","nrashut":2,"TzName":null,"streets":"3836","Authority":"נתיבי ישראל","domain":2,"new":null},
"geometry":{"type":"Point","coordinates":[34.818052,31.746134]}}
,
{"type":"Feature",
"id":313,"properties":{"mahoz":6,"semel":5535,"city":"יואב","nrashut":3,"TzName":"כניסה לכפר הרי\"ף","streets":"3830","Authority":"נתיבי ישראל","domain":2,"new":1},
"geometry":{"type":"Point","coordinates":[34.801329,31.753498]}}
,
{"type":"Feature",
"id":314,"properties":{"mahoz":4,"semel":564,"city":"רבדים","nrashut":1,"TzName":"כניסה לבני ראם מ","streets":"3931","Authority":"נתיבי ישראל","domain":2,"new":null},
"geometry":{"type":"Point","coordinates":[34.805999,31.772664]}}
,
{"type":"Feature",
"id":315,"properties":{"mahoz":4,"semel":564,"city":"רבדים","nrashut":2,"TzName":"בני ראם - רבדים","streets":"3935","Authority":"נתיבי ישראל","domain":2,"new":null},
"geometry":{"type":"Point","coordinates":[34.807103,31.773318]}}
,
{"type":"Feature",
"id":316,"properties":{"mahoz":4,"semel":2033,"city":"בית חלקיה","nrashut":1,"TzName":"כניסה לבית חלקיה","streets":"3933","Authority":"נתיבי ישראל","domain":2,"new":null},
"geometry":{"type":"Point","coordinates":[34.819301,31.787535]}}
,
{"type":"Feature",
"id":317,"properties":{"mahoz":1,"semel":5526,"city":"מטה יהודה","nrashut":1,"TzName":"כניסה ליד בנימין","streets":"האבות (3937)","Authority":"נתיבי ישראל","domain":2,"new":null},
"geometry":{"type":"Point","coordinates":[34.825294,31.791574]}}
,
{"type":"Feature",
"id":318,"properties":{"mahoz":4,"semel":5526,"city":"מטה יהודה","nrashut":2,"TzName":null,"streets":"3 / רמפה 6 דרום / רמפה מחלף שורק","Authority":"דרך ארץ","domain":2,"new":null},
"geometry":{"type":"Point","coordinates":[34.829851,31.793918]}}
,
{"type":"Feature",
"id":319,"properties":{"mahoz":1,"semel":5526,"city":"מטה יהודה","nrashut":3,"TzName":"מחלף שורק - מזרח","streets":"רמפה 3 מערב","Authority":"דרך ארץ","domain":2,"new":null},
"geometry":{"type":"Point","coordinates":[34.832329,31.795791]}}
,
{"type":"Feature",
"id":320,"properties":{"mahoz":4,"semel":5531,"city":"נחל שורק","nrashut":2,"TzName":"צומת לשורק","streets":"3 / 7","Authority":"נתיבי ישראל","domain":2,"new":null},
"geometry":{"type":"Point","coordinates":[34.840081,31.803557]}}
,
{"type":"Feature",
"id":321,"properties":{"mahoz":4,"semel":5531,"city":"נחל שורק","nrashut":3,"TzName":"כניסה ליסודות","streets":"3 / 4106","Authority":"נתיבי ישראל","domain":2,"new":null},
"geometry":{"type":"Point","coordinates":[34.85897,31.809842]}}
,
{"type":"Feature",
"id":322,"properties":{"mahoz":4,"semel":28,"city":"מזכרת בתיה","nrashut":1,"TzName":"צומת מזכרת בתיה","streets":"411 / רוטשילד","Authority":"נתיבי ישראל","domain":2,"new":null},
"geometry":{"type":"Point","coordinates":[34.833527,31.850461]}}
,
{"type":"Feature",
"id":323,"properties":{"mahoz":4,"semel":28,"city":"מזכרת בתיה","nrashut":2,"TzName":"כניסה למזכרת בתי","streets":"411 / מוטה גור","Authority":"נתיבי ישראל","domain":2,"new":null},
"geometry":{"type":"Point","coordinates":[34.839055,31.845769]}}
,
{"type":"Feature",
"id":324,"properties":{"mahoz":4,"semel":2660,"city":"יבנה","nrashut":4,"TzName":null,"streets":"העצמאות (42)","Authority":null,"domain":1,"new":null},
"geometry":{"type":"Point","coordinates":[34.7429,31.862254]}}
,
{"type":"Feature",
"id":325,"properties":{"mahoz":4,"semel":2660,"city":"יבנה","nrashut":5,"TzName":"כניסה לתחנת דלק","streets":"המיסב / העצמאות (42)","Authority":null,"domain":1,"new":null},
"geometry":{"type":"Point","coordinates":[34.743336,31.863143]}}
,
{"type":"Feature",
"id":326,"properties":{"mahoz":4,"semel":2660,"city":"יבנה","nrashut":6,"TzName":null,"streets":"הסנהדרין (4111) / ז'בוטינסקי","Authority":null,"domain":1,"new":null},
"geometry":{"type":"Point","coordinates":[34.741186,31.882896]}}
,
{"type":"Feature",
"id":327,"properties":{"mahoz":4,"semel":2660,"city":"יבנה","nrashut":7,"TzName":null,"streets":"דואני / העצמאות (42) / הראשונים (410)","Authority":null,"domain":1,"new":null},
"geometry":{"type":"Point","coordinates":[34.746127,31.868665]}}
,
{"type":"Feature",
"id":328,"properties":{"mahoz":4,"semel":2660,"city":"יבנה","nrashut":8,"TzName":null,"streets":"דוד אלעזר / הראשונים (410)","Authority":null,"domain":1,"new":null},
"geometry":{"type":"Point","coordinates":[34.748504,31.868566]}}
,
{"type":"Feature",
"id":329,"properties":{"mahoz":4,"semel":2660,"city":"יבנה","nrashut":9,"TzName":null,"streets":"דוד אלעזר / הראשונים (410) / מבצע דני","Authority":null,"domain":1,"new":null},
"geometry":{"type":"Point","coordinates":[34.750231,31.868937]}}
,
{"type":"Feature",
"id":330,"properties":{"mahoz":4,"semel":2660,"city":"יבנה","nrashut":10,"TzName":"צומת יבנה","streets":"אבו חצירא / הנשיאים / העצמאות (42)","Authority":null,"domain":1,"new":null},
"geometry":{"type":"Point","coordinates":[34.748894,31.872541]}}
,
{"type":"Feature",
"id":331,"properties":{"mahoz":4,"semel":2660,"city":"יבנה","nrashut":11,"TzName":null,"streets":"הגלבוע / הנשיאים / מלכי יהודה","Authority":null,"domain":1,"new":null},
"geometry":{"type":"Point","coordinates":[34.750326,31.871938]}}
,
{"type":"Feature",
"id":332,"properties":{"mahoz":4,"semel":2660,"city":"יבנה","nrashut":12,"TzName":null,"streets":"הדרור / הסנהדרין (4111)","Authority":null,"domain":1,"new":null},
"geometry":{"type":"Point","coordinates":[34.746524,31.879107]}}
,
{"type":"Feature",
"id":333,"properties":{"mahoz":4,"semel":2660,"city":"יבנה","nrashut":13,"TzName":null,"streets":"אהרון חג'ג' / העצמאות (42) / חרמון","Authority":null,"domain":1,"new":null},
"geometry":{"type":"Point","coordinates":[34.749648,31.87634]}}
,
{"type":"Feature",
"id":334,"properties":{"mahoz":4,"semel":2660,"city":"יבנה","nrashut":14,"TzName":"צומת יבנה - צפון","streets":"הסנהדרין (4111) / העצמאות (42)","Authority":null,"domain":1,"new":null},
"geometry":{"type":"Point","coordinates":[34.750453,31.878409]}}
,
{"type":"Feature",
"id":335,"properties":{"mahoz":4,"semel":2660,"city":"יבנה","nrashut":15,"TzName":"כניסה ליבנה - רח","streets":"הנשיאים / הראשונים (410)","Authority":null,"domain":1,"new":null},
"geometry":{"type":"Point","coordinates":[34.751723,31.86912]}}
,
{"type":"Feature",
"id":336,"properties":{"mahoz":4,"semel":853,"city":"גאליה","nrashut":1,"TzName":"כניסה לבית גמליא","streets":"410 / 4124","Authority":"נתיבי ישראל","domain":2,"new":null},
"geometry":{"type":"Point","coordinates":[34.756337,31.871296]}}
,
{"type":"Feature",
"id":337,"properties":{"mahoz":4,"semel":2660,"city":"יבנה","nrashut":16,"TzName":null,"streets":"הסנהדרין (4111) / הקישון","Authority":null,"domain":1,"new":null},
"geometry":{"type":"Point","coordinates":[34.736084,31.887246]}}
,
{"type":"Feature",
"id":338,"properties":{"mahoz":4,"semel":2660,"city":"יבנה","nrashut":17,"TzName":null,"streets":"הירדן / הסנהדרין (4111)","Authority":null,"domain":1,"new":null},
"geometry":{"type":"Point","coordinates":[34.738694,31.885603]}}
,
{"type":"Feature",
"id":339,"properties":{"mahoz":4,"semel":582,"city":"כפר הנגיד","nrashut":1,"TzName":"כניסה לכפר הנגיד","streets":"42","Authority":"נתיבי ישראל","domain":2,"new":null},
"geometry":{"type":"Point","coordinates":[34.756538,31.890142]}}
,
{"type":"Feature",
"id":340,"properties":{"mahoz":4,"semel":8400,"city":"רחובות","nrashut":1,"TzName":"צומת רחובות מערב","streets":"42 / יצחק כץ (411)","Authority":"נתיבי ישראל","domain":2,"new":null},
"geometry":{"type":"Point","coordinates":[34.76364,31.901759]}}
,
{"type":"Feature",
"id":341,"properties":{"mahoz":4,"semel":853,"city":"גאליה","nrashut":2,"TzName":"כניסה לגאליה","streets":"410","Authority":"נתיבי ישראל","domain":2,"new":1},
"geometry":{"type":"Point","coordinates":[34.76809,31.881621]}}
,
{"type":"Feature",
"id":342,"properties":{"mahoz":4,"semel":144,"city":"גן שלמה","nrashut":1,"TzName":null,"streets":"411 / 4123","Authority":"נתיבי ישראל","domain":2,"new":null},
"geometry":{"type":"Point","coordinates":[34.798482,31.873197]}}
,
{"type":"Feature",
"id":343,"properties":{"mahoz":4,"semel":8400,"city":"רחובות","nrashut":2,"TzName":"צומת כפר גבירול","streets":"הים (410) / יצחק כץ (410,411) / יצחק כץ (411)","Authority":"נתיבי ישראל","domain":2,"new":null},
"geometry":{"type":"Point","coordinates":[34.77793,31.887706]}}
,
{"type":"Feature",
"id":344,"properties":{"mahoz":4,"semel":8400,"city":"רחובות","nrashut":3,"TzName":"צומת","streets":"יצחק כץ (410,411) / יצחק כץ (411)","Authority":"נתיבי ישראל","domain":2,"new":null},
"geometry":{"type":"Point","coordinates":[34.776218,31.888803]}}
,
{"type":"Feature",
"id":345,"properties":{"mahoz":4,"semel":8400,"city":"רחובות","nrashut":4,"TzName":"כניסה לאזור תעשי","streets":"הים (410) / קלמן גבריאלוב","Authority":"נתיבי ישראל","domain":2,"new":null},
"geometry":{"type":"Point","coordinates":[34.7834,31.890169]}}
,
{"type":"Feature",
"id":346,"properties":{"mahoz":4,"semel":202,"city":"בית עובד","nrashut":1,"TzName":"כניסה לעיינות","streets":"42","Authority":"נתיבי ישראל","domain":2,"new":null},
"geometry":{"type":"Point","coordinates":[34.771191,31.915496]}}
,
{"type":"Feature",
"id":347,"properties":{"mahoz":4,"semel":8400,"city":"רחובות","nrashut":5,"TzName":null,"streets":"ישראל טפר / שמעון דובנוב / ששת הימים","Authority":null,"domain":1,"new":null},
"geometry":{"type":"Point","coordinates":[34.79015,31.887573]}}
,
{"type":"Feature",
"id":348,"properties":{"mahoz":4,"semel":8400,"city":"רחובות","nrashut":6,"TzName":null,"streets":"זלקינד סטולבוב / משה פריד / ששת הימים","Authority":null,"domain":1,"new":null},
"geometry":{"type":"Point","coordinates":[34.790213,31.887994]}}
,
{"type":"Feature",
"id":349,"properties":{"mahoz":4,"semel":8400,"city":"רחובות","nrashut":7,"TzName":null,"streets":"רמפה הים / רמפה ששת הימים / ששת הימים","Authority":null,"domain":1,"new":null},
"geometry":{"type":"Point","coordinates":[34.79097,31.893034]}}
,
{"type":"Feature",
"id":350,"properties":{"mahoz":4,"semel":8400,"city":"רחובות","nrashut":8,"TzName":null,"streets":"רמפה הים / רמפה ששת הימים / ששת הימים","Authority":null,"domain":1,"new":null},
"geometry":{"type":"Point","coordinates":[34.790901,31.893565]}}
,
{"type":"Feature",
"id":351,"properties":{"mahoz":4,"semel":8400,"city":"רחובות","nrashut":9,"TzName":null,"streets":"מוטי קינד","Authority":null,"domain":1,"new":null},
"geometry":{"type":"Point","coordinates":[34.790707,31.895611]}}
,
{"type":"Feature",
"id":352,"properties":{"mahoz":4,"semel":8400,"city":"רחובות","nrashut":10,"TzName":null,"streets":"גד פיינשטיין / האלוף יעקב פרי","Authority":null,"domain":1,"new":null},
"geometry":{"type":"Point","coordinates":[34.790602,31.89772]}}
,
{"type":"Feature",
"id":353,"properties":{"mahoz":4,"semel":8400,"city":"רחובות","nrashut":11,"TzName":null,"streets":"הים (410) / עמוס דניאלי","Authority":null,"domain":1,"new":null},
"geometry":{"type":"Point","coordinates":[34.795672,31.895174]}}
,
{"type":"Feature",
"id":354,"properties":{"mahoz":4,"semel":8400,"city":"רחובות","nrashut":12,"TzName":null,"streets":"הים (410) / צבי ארליך","Authority":null,"domain":1,"new":null},
"geometry":{"type":"Point","coordinates":[34.797821,31.896189]}}
,
{"type":"Feature",
"id":355,"properties":{"mahoz":4,"semel":8400,"city":"רחובות","nrashut":13,"TzName":null,"streets":"אצ''ל / הים (410) / יבנה (410) / עמיאל רוז'נסקי","Authority":null,"domain":1,"new":null},
"geometry":{"type":"Point","coordinates":[34.800084,31.897486]}}
,
{"type":"Feature",
"id":356,"properties":{"mahoz":4,"semel":8400,"city":"רחובות","nrashut":14,"TzName":null,"streets":"אצ''ל / המנוף / ציפורה טוב","Authority":null,"domain":1,"new":null},
"geometry":{"type":"Point","coordinates":[34.798978,31.898835]}}
,
{"type":"Feature",
"id":357,"properties":{"mahoz":4,"semel":8400,"city":"רחובות","nrashut":15,"TzName":null,"streets":"אצ''ל / הבושם / יצחק זאב אלטשולר / מור","Authority":null,"domain":1,"new":null},
"geometry":{"type":"Point","coordinates":[34.798706,31.902159]}}
,
{"type":"Feature",
"id":358,"properties":{"mahoz":4,"semel":8300,"city":"ראשון לציון","nrashut":1,"TzName":null,"streets":"יצחק רבין / רמפה גשר רבין","Authority":null,"domain":1,"new":null},
"geometry":{"type":"Point","coordinates":[34.755134,31.97979]}}
,
{"type":"Feature",
"id":359,"properties":{"mahoz":4,"semel":8300,"city":"ראשון לציון","nrashut":2,"TzName":null,"streets":"יצחק רבין / נאות סיני","Authority":null,"domain":1,"new":null},
"geometry":{"type":"Point","coordinates":[34.760224,31.977698]}}
,
{"type":"Feature",
"id":360,"properties":{"mahoz":4,"semel":8300,"city":"ראשון לציון","nrashut":3,"TzName":null,"streets":"חיים ברלב / יצחק רבין / רנה קאסן","Authority":null,"domain":1,"new":null},
"geometry":{"type":"Point","coordinates":[34.762816,31.976233]}}
,
{"type":"Feature",
"id":361,"properties":{"mahoz":4,"semel":8300,"city":"ראשון לציון","nrashut":4,"TzName":null,"streets":"אוגדה / גדולי ישראל / חיים ברלב","Authority":null,"domain":1,"new":null},
"geometry":{"type":"Point","coordinates":[34.765325,31.979491]}}
,
{"type":"Feature",
"id":362,"properties":{"mahoz":4,"semel":156,"city":"עיינות","nrashut":1,"TzName":"צומת בית עובד","streets":"42 / 4303 / השדות","Authority":"נתיבי ישראל","domain":2,"new":null},
"geometry":{"type":"Point","coordinates":[34.770529,31.920673]}}
,
{"type":"Feature",
"id":363,"properties":{"mahoz":4,"semel":202,"city":"בית עובד","nrashut":2,"TzName":"כניסה לבית עובד","streets":"4303 / המייסדים","Authority":"נתיבי ישראל","domain":2,"new":null},
"geometry":{"type":"Point","coordinates":[34.771722,31.920405]}}
,
{"type":"Feature",
"id":364,"properties":{"mahoz":4,"semel":7200,"city":"נס ציונה","nrashut":1,"TzName":"כניסה לנס ציונה","streets":"האלופים / יצחק רבין (4303)","Authority":null,"domain":1,"new":null},
"geometry":{"type":"Point","coordinates":[34.778749,31.921236]}}
,
{"type":"Feature",
"id":365,"properties":{"mahoz":4,"semel":8300,"city":"ראשון לציון","nrashut":5,"TzName":"אזור עסקים שורק","streets":"4311 / מרק מושביץ","Authority":"נתיבי ישראל","domain":2,"new":null},
"geometry":{"type":"Point","coordinates":[34.770121,31.948978]}}
,
{"type":"Feature",
"id":366,"properties":{"mahoz":4,"semel":159,"city":"בית חנן","nrashut":1,"TzName":"כניסה לבית חנן","streets":"42","Authority":"נתיבי ישראל","domain":2,"new":null},
"geometry":{"type":"Point","coordinates":[34.77862,31.936207]}}
,
{"type":"Feature",
"id":367,"properties":{"mahoz":4,"semel":7200,"city":"נס ציונה","nrashut":2,"TzName":null,"streets":"העמק / יצחק רבין (4303) / עמק השושנים","Authority":null,"domain":1,"new":null},
"geometry":{"type":"Point","coordinates":[34.785379,31.922181]}}
,
{"type":"Feature",
"id":368,"properties":{"mahoz":4,"semel":7200,"city":"נס ציונה","nrashut":3,"TzName":null,"streets":"הנפת הדגל / תרמ''ג","Authority":null,"domain":1,"new":null},
"geometry":{"type":"Point","coordinates":[34.79507,31.920401]}}
,
{"type":"Feature",
"id":369,"properties":{"mahoz":4,"semel":7200,"city":"נס ציונה","nrashut":4,"TzName":null,"streets":"המניין הראשון / יצחק רבין (4303) / תרמ''ג","Authority":null,"domain":1,"new":null},
"geometry":{"type":"Point","coordinates":[34.795112,31.923998]}}
,
{"type":"Feature",
"id":370,"properties":{"mahoz":4,"semel":7200,"city":"נס ציונה","nrashut":5,"TzName":null,"streets":"וייצמן (412)","Authority":null,"domain":1,"new":1},
"geometry":{"type":"Point","coordinates":[34.79968,31.917789]}}
,
{"type":"Feature",
"id":371,"properties":{"mahoz":4,"semel":7200,"city":"נס ציונה","nrashut":6,"TzName":null,"streets":"הנפת הדגל (4303) / וייצמן (412) / וייצמן (412,4303)","Authority":null,"domain":1,"new":null},
"geometry":{"type":"Point","coordinates":[34.798246,31.92062]}}
,
{"type":"Feature",
"id":372,"properties":{"mahoz":4,"semel":7200,"city":"נס ציונה","nrashut":7,"TzName":null,"streets":"החרש / וייצמן (412,4303)","Authority":null,"domain":1,"new":null},
"geometry":{"type":"Point","coordinates":[34.797932,31.922543]}}
,
{"type":"Feature",
"id":373,"properties":{"mahoz":4,"semel":7200,"city":"נס ציונה","nrashut":8,"TzName":"צומת נס ציונה","streets":"בן גוריון / וייצמן (412) / וייצמן (412,4303) / יצחק רבין (43","Authority":null,"domain":1,"new":null},
"geometry":{"type":"Point","coordinates":[34.797851,31.924293]}}
,
{"type":"Feature",
"id":374,"properties":{"mahoz":4,"semel":7200,"city":"נס ציונה","nrashut":9,"TzName":null,"streets":"הבנים / וייצמן (412) / עמק השושנים","Authority":null,"domain":1,"new":null},
"geometry":{"type":"Point","coordinates":[34.798649,31.929069]}}
,
{"type":"Feature",
"id":375,"properties":{"mahoz":4,"semel":7200,"city":"נס ציונה","nrashut":10,"TzName":"צומת נס ציונה - צ","streets":"המאה ואחד / וייצמן (412) / מרגולין (4315)","Authority":null,"domain":1,"new":null},
"geometry":{"type":"Point","coordinates":[34.799937,31.936584]}}
,
{"type":"Feature",
"id":376,"properties":{"mahoz":4,"semel":8300,"city":"ראשון לציון","nrashut":6,"TzName":"כניסה לנטעים","streets":"4311","Authority":"נתיבי ישראל","domain":2,"new":null},
"geometry":{"type":"Point","coordinates":[34.772775,31.949265]}}
,
{"type":"Feature",
"id":377,"properties":{"mahoz":4,"semel":8300,"city":"ראשון לציון","nrashut":7,"TzName":"כניסה לראשון לצי","streets":"4311 / המדע","Authority":"נתיבי ישראל","domain":2,"new":null},
"geometry":{"type":"Point","coordinates":[34.775971,31.951033]}}
,
{"type":"Feature",
"id":378,"properties":{"mahoz":4,"semel":8300,"city":"ראשון לציון","nrashut":8,"TzName":"צומת לגן שורק","streets":"רמפה 412 / רמפה 4311","Authority":"נתיבי היובל","domain":2,"new":null},
"geometry":{"type":"Point","coordinates":[34.779365,31.954211]}}
,
{"type":"Feature",
"id":379,"properties":{"mahoz":4,"semel":8300,"city":"ראשון לציון","nrashut":9,"TzName":null,"streets":"רמפה 4311","Authority":"נתיבי היובל","domain":2,"new":null},
"geometry":{"type":"Point","coordinates":[34.78089,31.955354]}}
,
{"type":"Feature",
"id":380,"properties":{"mahoz":4,"semel":8300,"city":"ראשון לציון","nrashut":10,"TzName":null,"streets":"המצלתיים / חומה ומגדל / נגבה","Authority":null,"domain":1,"new":null},
"geometry":{"type":"Point","coordinates":[34.776054,31.964067]}}
,
{"type":"Feature",
"id":381,"properties":{"mahoz":4,"semel":8300,"city":"ראשון לציון","nrashut":11,"TzName":null,"streets":"החצוצרה / מוטה גור","Authority":null,"domain":1,"new":null},
"geometry":{"type":"Point","coordinates":[34.770812,31.96627]}}
,
{"type":"Feature",
"id":382,"properties":{"mahoz":4,"semel":8300,"city":"ראשון לציון","nrashut":12,"TzName":null,"streets":"האוניברסיטה / יצחק רבין / מורשת ישראל","Authority":null,"domain":1,"new":null},
"geometry":{"type":"Point","coordinates":[34.769355,31.972817]}}
,
{"type":"Feature",
"id":383,"properties":{"mahoz":4,"semel":8300,"city":"ראשון לציון","nrashut":13,"TzName":null,"streets":"אלי ויזל / מוטה גור","Authority":null,"domain":1,"new":null},